{"key":"projectName","value":"frontend-serp","priority":1000,"filter":{}},{"key":"mcsRunEnv","value":"PROD","priority":1000,"filter":{}},{"key":"mcsRunEnvType","value":"prod","priority":1000,"filter":{}},{"key":"version","value":"[frontend-serp][CD-122587][d37b98e7]","priority":1000,"filter":{}},{"key":"logger.browser.baseUrl","value":"https:\u002F\u002Fwww.cian.ru\u002F","priority":51,"filter":{}},{"key":"logger.browser.pathApi","value":"\u002Fajax\u002Flog-error\u002F","priority":5,"filter":{}},{"key":"logger.browser.errorFilter","value":["Failed get-infinite-search-result-desktop","Couldn't open socket connection, code: 1006","Недопустимый знак"],"priority":0,"filter":{}},{"key":"web.manifest.assetsBaseUrl","value":"\u002F\u002Fcdn.cian.site\u002Ffrontend\u002Ffrontend-serp\u002F","priority":0,"filter":{}},{"key":"web.mcsRunEnv","value":"PROD","priority":0,"filter":{}},{"key":"web.isWebView","value":false,"priority":0,"filter":{}},{"key":"web.platform","value":null,"priority":0,"filter":{}},{"key":"web.deviceType","value":"desktop","priority":0,"filter":{}},{"key":"web.browser.vitals.enabled","value":true,"priority":0,"filter":{}},{"key":"web.browser.vitals.transport","value":"sopr","priority":0,"filter":{}},{"key":"web.browser.vitals.pathApi","value":"\u002Ffrontend-metrics\u002F","priority":0,"filter":{}},{"key":"web.browser.vitals.microserviceName","value":"sopr-api","priority":0,"filter":{}},{"key":"COMM_MAGIC_ACCOUNT_ID","value":"8yrRI_QNvcxAPSrgg7mYM8nnG9WxGhMR","priority":0,"filter":{}},{"key":"Countryside.OffersBuilderBadge.Enabled","value":true,"priority":10,"filter":{}},{"key":"Moderation.CustomSanction.NewModerationInfo.Enabled","value":true,"priority":0,"filter":{}},{"key":"addForm.UtilitiesTerms.Enabled","value":true,"priority":10,"filter":{}},{"key":"addformConfig.excludeUtilitiesTermsRegions","value":[4959,4606,4588,2],"priority":0,"filter":{}},{"key":"addformConfig.includeUtilitiesTermsRegions","value":[1,4593],"priority":100,"filter":{}},{"key":"addformConfig.useIncludeUtilitiesTermsRegions","value":true,"priority":10,"filter":{}},{"key":"applicationServerKey","value":"BI9OUsSDFiM7CXneYcSpxJEEzfqLO_dsW4a8hhx9HjYc9z1PbtNBMdiwAJMhsKVVVLByKeUryOcwflioISSqx9k","priority":0,"filter":{}},{"key":"audience.YandexApiKey","value":"7a99de42-ac61-446d-9b37-2f210ea2231f","priority":5,"filter":{}},{"key":"browserApiBaseUrl","value":"https:\u002F\u002Fcian.ru\u002F","priority":0,"filter":{}},{"key":"chats.udApiBrowserUrl","value":"https:\u002F\u002Fud-api.cian.ru\u002Fchats\u002F","priority":10,"filter":{}},{"key":"collectionsCdn.baseUrl","value":"\u002F\u002Fcdn.cian.site\u002Ffrontend\u002Fcollections-assets\u002F","priority":0,"filter":{}},{"key":"commercialAnalytics.browserUrl","value":"https:\u002F\u002Fapi.cian.ru\u002Fcommercial-analytics\u002F","priority":0,"filter":{}},{"key":"commercialAnalytics.udApiBrowserUrl","value":"https:\u002F\u002Fud-api.cian.ru\u002Fcommercial-analytics\u002F","priority":0,"filter":{}},{"key":"demand.udApiBrowserUrl","value":"https:\u002F\u002Fud-api.cian.ru\u002Fdemand\u002F","priority":0,"filter":{}},{"key":"frontend-serp.newbuildingEntryBannerInfo","value":{"mixed":{"title":"Новая квартира в современном доме","description":"Новостройки с выгодными ставками по ипотеке"},"resale":{"title":"Похожие квартиры в новостройках рядом","description":"Новые жилые комплексы с выгодными ставками по ипотеке"},"suburban":{"title":"Комфортное жилье в новостройке","description":"Просторные квартиры в современных жилых комплексах"},"suburban_alt":{"title":"Комфортное жилье в новостройке","description":"Просторные квартиры в современных жилых комплексах"}},"priority":0,"filter":{}},{"key":"hiddenObjects.lkUrl","value":"https:\u002F\u002Fmy.cian.ru\u002Fhidden-offers\u002F","priority":0,"filter":{}},{"key":"isMlSearchForAll.Enabled","value":true,"priority":10,"filter":{}},{"key":"mlSearchRegions","value":[4560,4576,4600],"priority":0,"filter":{}},{"key":"moderation-complaints.browserUrl","value":"https:\u002F\u002Fapi.cian.ru\u002Fmoderation-complaints\u002F","priority":1,"filter":{}},{"key":"moderation-complaints.udApiBrowserUrl","value":"https:\u002F\u002Fud-api.cian.ru\u002Fmoderation-complaints\u002F","priority":11,"filter":{}},{"key":"monolith-cian-realty.browserUrl","value":"https:\u002F\u002Fcian.ru\u002F","priority":0,"filter":{}},{"key":"monolith-cian-realty.udApiBrowserUrl","value":"https:\u002F\u002Fud-api.cian.ru\u002F","priority":0,"filter":{}},{"key":"monolithPython.udApiBrowserUrl","value":"https:\u002F\u002Fud-api.cian.ru\u002F","priority":10,"filter":{}},{"key":"monolith-python.browserUrl","value":"https:\u002F\u002Fcian.ru\u002F","priority":10,"filter":{}},{"key":"monolith-python.udApiBrowserUrl","value":"https:\u002F\u002Fud-api.cian.ru\u002F","priority":0,"filter":{}},{"key":"monolith-csharp.browserUrl","value":"https:\u002F\u002Fcian.ru\u002F","priority":11,"filter":{}},{"key":"monolith-csharp.udApiBrowserUrl","value":"https:\u002F\u002Fud-api.cian.ru\u002F","priority":22,"filter":{}},{"key":"neighbors.availableOfferType","value":4194302,"priority":0,"filter":{}},{"key":"newbuildingChat.chatOpenDelay","value":2000,"priority":0,"filter":{}},{"key":"newbuildingConsultant.phone.enabledRegions","value":[1,4593,-1],"priority":0,"filter":{}},{"key":"newbuildingConsultant.phone.moscowAndRegion","value":"8 800 33 30 343","priority":0,"filter":{}},{"key":"newbuildingConsultant.telegramLink","value":"http:\u002F\u002Ft.me\u002Fcian_novostroyki_bot","priority":20,"filter":{}},{"key":"newbuildingConsultant.whatsappLink","value":"","priority":0,"filter":{}},{"key":"newbuildingLabels","value":{"isEnabled":false,"onlineDeal":[{"regionId":-1,"newBuildingIds":[]}],"indicatorTexts":{"onlineDeal":"Онлайн-сделка","consultantOnline":"Консультант на связи","builderOnline":"Застройщик на связи"},"infoTexts":{"onlineDeal":{"title":"Застройщик проводит сделки дистанционно","text":"Проведет вам показ ЖК\u002Fквартиры онлайн, все необходимые документы пришлет курьером. Звоните"},"consultantOnline":{"title":"Застройщик временно не принимает звонки с Циана","text":"Вы можете написать нашему консультанту, он поможет вам подобрать квартиру."},"builderOnline":{"title":"Застройщик работает и принимает звонки","text":"Звоните"}}},"priority":0,"filter":{}},{"key":"push.browserUrl","value":"https:\u002F\u002Fcian.ru\u002F","priority":5,"filter":{}},{"key":"push.enabled","value":true,"priority":0,"filter":{}},{"key":"redirectToOldFilters","value":"disabled","priority":0,"filter":{}},{"key":"searchOffers.browserUrl","value":"https:\u002F\u002Fapi.cian.ru\u002Fsearch-offers\u002F","priority":1,"filter":{}},{"key":"serp.filtersRedesignExperimentFinished","value":true,"priority":10,"filter":{}},{"key":"serp.isAdditionalTop3Enabled","value":true,"priority":0,"filter":{}},{"key":"serp.offersPerPage","value":28,"priority":0,"filter":{}},{"key":"serp.promo.collections.enabled","value":true,"priority":10,"filter":{}},{"key":"soprApi.browserUrl","value":"https:\u002F\u002Fsopr-api.cian.ru\u002F","priority":0,"filter":{}},{"key":"soprExperiments.browserUrl","value":"https:\u002F\u002Fapi.cian.ru\u002Fsopr-experiments\u002F","priority":1,"filter":{}},{"key":"soprExperimentsForTeaserUrl","value":"\u002F\u002Fsopr-api.cian.ru\u002F","priority":0,"filter":{}},{"key":"userInteractiveTime.debug.enabled","value":false,"priority":0,"filter":{}},{"key":"userInteractiveTime.enabled","value":true,"priority":10,"filter":{}},{"key":"userInteractiveTime.inactiveTime","value":20000,"priority":10,"filter":{}},{"key":"userInteractiveTime.schedulerInterval","value":30000,"priority":10,"filter":{}},{"key":"validateStep","value":true,"priority":0,"filter":{}},{"key":"webPushNotifications.browserUrl","value":"https:\u002F\u002Fapi.cian.ru\u002Fnotification-center\u002Fv1\u002Fweb-push\u002F","priority":0,"filter":{}},{"key":"webim.accountName","value":"cianru008","priority":0,"filter":{}},{"key":"DealRent.DealRegionIds","value":[1,2,4593,4588,-1,-2,4584,4612,4606,4608,4618,4596],"priority":0,"filter":{}},{"key":"DealRent.DealRegionFilterIds","value":[1,2,4593,4588,-1,-2],"priority":0,"filter":{}},{"key":"requestFormRealtorFrontend.pagePath","value":"\u002Fapplication-form\u002F","priority":0,"filter":{}},{"key":"webim.zao.accountName","value":"wwwcianru001","priority":100500,"filter":{}},{"key":"showVillagePromotions","value":true,"priority":0,"filter":{}},{"key":"Commercial.Business.V2.Enabled","value":true,"priority":0,"filter":{}},{"key":"showCountryBuildersBanner","value":true,"priority":0,"filter":{}},{"key":"Commercial.UserProfiling.Enabled","value":true,"priority":0,"filter":{}},{"key":"new_highlighting","value":true,"priority":10,"filter":{}},{"key":"subdomain","value":"nn","priority":10,"filter":{}},{"key":"apiBaseUrl","value":"https:\u002F\u002Fcian.ru\u002F","priority":10,"filter":{}},{"key":"countrysideSearch.baseUrl","value":null,"priority":10,"filter":{}},{"key":"initialState","value":{"maxAuctionBet":60,"maxAuctionService":"top3","currentSubdomain":"nn","currentPath":"","experiments":[{"abGroup":0,"name":"audience_serp_light"},{"abGroup":3,"name":"offers_in_kp"},{"abGroup":0,"name":"degradation_of_payed_card"},{"abGroup":1,"name":"countryside_card_integration"},{"abGroup":0,"name":"newbuilding-serp-filter-checkbox"},{"abGroup":0,"name":"countryside_promotions"},{"abGroup":0,"name":"newbuilding-serp-from-developer"},{"abGroup":0,"name":"flat_disable_top3"},{"abGroup":1,"name":"audience_serp_filters_neighbors"},{"abGroup":0,"name":"ab_newbuilders_promo_form"},{"abGroup":0,"name":"top3_photo_size"},{"abGroup":0,"name":"slonotop-card"},{"abGroup":1,"name":"king_size_card"},{"abGroup":0,"name":"message_button_for_jk_card"},{"abGroup":0,"name":"call_button_name_offer"},{"abGroup":0,"name":"nps"},{"abGroup":1,"name":"offer_title_for_vas"},{"abGroup":0,"name":"newbuilding-serp-filters"},{"abGroup":1,"name":"card_visibility_observation"},{"abGroup":1,"name":"audience_serp_filters_dropdown_rent"},{"abGroup":1,"name":"audience_serp_filters_dropdown_suburban"},{"abGroup":0,"name":"history_search"}],"abUseExperiments":[{"experimentName":"aud_1266_calltracking_warning","groupName":null},{"experimentName":"commercial_unique_shield_experiment","groupName":null},{"experimentName":"commercial_user_profiling","groupName":"B"},{"experimentName":"cottage_village_checkbox","groupName":null},{"experimentName":"deal_rent_cian_agency","groupName":null},{"experimentName":"deal_rent_disable_phones","groupName":null},{"experimentName":"deal_rent_filter_name_v2","groupName":null},{"experimentName":"deal_rent_offer_title_experiment","groupName":null},{"experimentName":"deal_rent_serp_banner","groupName":"enabled"},{"experimentName":"newbuilding-triggering-message","groupName":null},{"experimentName":"newbuilding_chat_common_filter","groupName":null},{"experimentName":"newbuilding_consultant","groupName":null},{"experimentName":"newbuilding_consultant_help_in_search","groupName":null},{"experimentName":"serp_filters_redesign_2020","groupName":null},{"experimentName":"serp_redesign","groupName":null},{"experimentName":"village_promotions","groupName":null},{"experimentName":"zao_chats","groupName":"B"}],"filters":{"jsonQuery":{"region":{"type":"terms","value":[4885]},"_type":"flatsale","engine_version":{"type":"term","value":2},"room":{"type":"terms","value":[1,2,3,4,5,6,7,9]}},"nextJsonQuery":{"region":{"type":"terms","value":[4885]},"_type":"flatsale","engine_version":{"type":"term","value":2},"room":{"type":"terms","value":[1,2,3,4,5,6,7,9]}},"tags":[],"tagsData":{"newbuildings":{},"newbuildingHouses":{},"bsCenters":{},"developers":{},"locations":{},"districts":{},"streets":{},"houses":{},"undergrounds":{},"directions":[],"commercialSpecialties":[],"railways":{},"coworkings":{}},"tagsOptions":{"isFitInOneLineEnabled":true},"jsonQueryCountRefresing":false,"regions":[{"boundedBy":{"upperCorner":{"lat":56.021224,"lng":37.967428},"lowerCorner":{"lat":55.142175,"lng":36.803101}},"mainTownId":null,"hasMetro":true,"displayName":"Москва","name":"Москва","capitalBoundedBy":null,"id":1,"hasHighway":false,"hasDistricts":true,"fullNamePrepositional":"Москве","baseHost":"https:\u002F\u002Fwww.cian.ru","hasNeighbors":false,"lng":37.6213,"parentId":null,"lat":55.7557,"fullName":"Москва","prepositionalPretext":"в"},{"boundedBy":{"upperCorner":{"lat":60.244837,"lng":30.759691},"lowerCorner":{"lat":59.633783,"lng":29.42981}},"mainTownId":null,"hasMetro":true,"displayName":"Санкт-Петербург","name":"Санкт-Петербург","capitalBoundedBy":null,"id":2,"hasHighway":false,"hasDistricts":true,"fullNamePrepositional":"Санкт-Петербурге","baseHost":"https:\u002F\u002Fspb.cian.ru","hasNeighbors":false,"lng":30.3058,"parentId":null,"lat":59.9385,"fullName":"Санкт-Петербург","prepositionalPretext":"в"},{"boundedBy":{"upperCorner":{"lat":45.217113,"lng":40.777647},"lowerCorner":{"lat":43.760146,"lng":38.684018}},"mainTownId":4855,"hasMetro":false,"displayName":"Адыгея","name":"Адыгея","capitalBoundedBy":{"upperCorner":{"lat":44.79411,"lng":40.1586504},"lowerCorner":{"lat":44.564965,"lng":39.8962476}},"id":4553,"hasHighway":false,"hasDistricts":false,"fullNamePrepositional":"Республике Адыгея","baseHost":"https:\u002F\u002Fmaykop.cian.ru","hasNeighbors":null,"lng":40.113209,"parentId":null,"lat":44.609139,"fullName":"Республика Адыгея","prepositionalPretext":"в"},{"boundedBy":{"upperCorner":{"lat":52.660268,"lng":89.86565},"lowerCorner":{"lat":49.071318,"lng":83.932803}},"mainTownId":4719,"hasMetro":false,"displayName":"Алтай (Республика)","name":"Алтай","capitalBoundedBy":{"upperCorner":{"lat":51.9936497,"lng":86.0653842},"lowerCorner":{"lat":51.8702622,"lng":85.8818937}},"id":4554,"hasHighway":false,"hasDistricts":false,"fullNamePrepositional":"Республике Алтай","baseHost":"https:\u002F\u002Fgorno-altaysk.cian.ru","hasNeighbors":null,"lng":85.971291,"parentId":null,"lat":51.958118,"fullName":"Республика Алтай","prepositionalPretext":"в"},{"boundedBy":{"upperCorner":{"lat":54.45311,"lng":87.168651},"lowerCorner":{"lat":50.639877,"lng":77.888953}},"mainTownId":4668,"hasMetro":false,"displayName":"Алтайский край","name":"Алтайский","capitalBoundedBy":{"upperCorner":{"lat":53.5038759,"lng":83.8986297},"lowerCorner":{"lat":53.0974367,"lng":83.3476699}},"id":4555,"hasHighway":false,"hasDistricts":false,"fullNamePrepositional":"Алтайском крае","baseHost":"https:\u002F\u002Fbarnaul.cian.ru","hasNeighbors":false,"lng":83.76165,"parentId":null,"lat":53.356338,"fullName":"Алтайский край","prepositionalPretext":"в"},{"boundedBy":{"upperCorner":{"lat":57.060508,"lng":134.920913},"lowerCorner":{"lat":48.853458,"lng":119.655391}},"mainTownId":4683,"hasMetro":false,"displayName":"Амурская область","name":"Амурская","capitalBoundedBy":{"upperCorner":{"lat":50.5758504,"lng":127.7425064},"lowerCorner":{"lat":50.2069451,"lng":127.3798876}},"id":4556,"hasHighway":false,"hasDistricts":false,"fullNamePrepositional":"Амурской области","baseHost":"https:\u002F\u002Fblagoveschensk.cian.ru","hasNeighbors":null,"lng":127.534141,"parentId":null,"lat":50.27494,"fullName":"Амурская область","prepositionalPretext":"в"},{"boundedBy":{"upperCorner":{"lat":82.058623,"lng":69.957225},"lowerCorner":{"lat":60.635816,"lng":35.269598}},"mainTownId":4658,"hasMetro":false,"displayName":"Архангельская область","name":"Архангельская","capitalBoundedBy":{"upperCorner":{"lat":64.7725028441,"lng":40.8365073},"lowerCorner":{"lat":64.3974631,"lng":40.2849384}},"id":4557,"hasHighway":false,"hasDistricts":false,"fullNamePrepositional":"Архангельской области","baseHost":"https:\u002F\u002Farhangelsk.cian.ru","hasNeighbors":null,"lng":40.565571,"parentId":null,"lat":64.536926,"fullName":"Архангельская область","prepositionalPretext":"в"},{"boundedBy":{"upperCorner":{"lat":48.863566,"lng":49.886117},"lowerCorner":{"lat":45.262264,"lng":44.960978}},"mainTownId":4660,"hasMetro":false,"displayName":"Астраханская область","name":"Астраханская","capitalBoundedBy":{"upperCorner":{"lat":46.4716848,"lng":48.2031061},"lowerCorner":{"lat":46.2594902,"lng":47.8775659}},"id":4558,"hasHighway":false,"hasDistricts":false,"fullNamePrepositional":"Астраханской области","baseHost":"https:\u002F\u002Fastrahan.cian.ru","hasNeighbors":null,"lng":48.052719,"parentId":null,"lat":46.354889,"fullName":"Астраханская область","prepositionalPretext":"в"},{"boundedBy":{"upperCorner":{"lat":56.534644,"lng":60.001809},"lowerCorner":{"lat":51.569554,"lng":53.157542}},"mainTownId":176245,"hasMetro":false,"displayName":"Башкортостан","name":"Башкортостан","capitalBoundedBy":{"upperCorner":{"lat":54.959875,"lng":56.298556},"lowerCorner":{"lat":54.500751,"lng":55.778653}},"id":4560,"hasHighway":false,"hasDistricts":false,"fullNamePrepositional":"Республике Башкортостан","baseHost":"https:\u002F\u002Fufa.cian.ru","hasNeighbors":null,"lng":55.991982,"parentId":null,"lat":54.7355,"fullName":"Республика Башкортостан","prepositionalPretext":"в"},{"boundedBy":{"upperCorner":{"lat":51.430287,"lng":39.280769},"lowerCorner":{"lat":49.796014,"lng":35.325686}},"mainTownId":4671,"hasMetro":false,"displayName":"Белгородская область","name":"Белгородская","capitalBoundedBy":{"upperCorner":{"lat":50.6669587,"lng":36.6864635},"lowerCorner":{"lat":50.5050365,"lng":36.4448198}},"id":4561,"hasHighway":false,"hasDistricts":false,"fullNamePrepositional":"Белгородской области","baseHost":"https:\u002F\u002Fbelgorod.cian.ru","hasNeighbors":false,"lng":36.609211,"parentId":null,"lat":50.596611,"fullName":"Белгородская область","prepositionalPretext":"в"},{"boundedBy":{"upperCorner":{"lat":54.034031,"lng":35.325127},"lowerCorner":{"lat":51.843075,"lng":31.24091}},"mainTownId":4691,"hasMetro":false,"displayName":"Брянская область","name":"Брянская","capitalBoundedBy":{"upperCorner":{"lat":53.374508,"lng":34.686021},"lowerCorner":{"lat":53.184412,"lng":34.194748}},"id":4562,"hasHighway":false,"hasDistricts":false,"fullNamePrepositional":"Брянской области","baseHost":"https:\u002F\u002Fbryansk.cian.ru","hasNeighbors":null,"lng":34.300369,"parentId":null,"lat":53.310661,"fullName":"Брянская область","prepositionalPretext":"в"},{"boundedBy":{"upperCorner":{"lat":57.249783,"lng":116.921375},"lowerCorner":{"lat":49.9599,"lng":98.63053}},"mainTownId":5026,"hasMetro":false,"displayName":"Бурятия","name":"Бурятия","capitalBoundedBy":{"upperCorner":{"lat":51.9130762,"lng":107.7860072},"lowerCorner":{"lat":51.7560945,"lng":107.399006}},"id":4563,"hasHighway":false,"hasDistricts":false,"fullNamePrepositional":"Республике Бурятия","baseHost":"https:\u002F\u002Fulan-ude.cian.ru","hasNeighbors":null,"lng":107.608093,"parentId":null,"lat":51.840839,"fullName":"Республика Бурятия","prepositionalPretext":"в"},{"boundedBy":{"upperCorner":{"lat":56.812682,"lng":42.976134},"lowerCorner":{"lat":55.10142,"lng":38.268103}},"mainTownId":4703,"hasMetro":false,"displayName":"Владимирская область","name":"Владимирская","capitalBoundedBy":{"upperCorner":{"lat":56.2264328,"lng":40.6776121},"lowerCorner":{"lat":56.0473765,"lng":40.1649638}},"id":4564,"hasHighway":false,"hasDistricts":false,"fullNamePrepositional":"Владимирской области","baseHost":"https:\u002F\u002Fvladimir.cian.ru","hasNeighbors":false,"lng":40.407559,"parentId":null,"lat":56.127701,"fullName":"Владимирская область","prepositionalPretext":"во"},{"boundedBy":{"upperCorner":{"lat":51.247608,"lng":47.43145},"lowerCorner":{"lat":47.443733,"lng":41.168105}},"mainTownId":4704,"hasMetro":false,"displayName":"Волгоградская область","name":"Волгоградская","capitalBoundedBy":{"upperCorner":{"lat":48.8890717,"lng":44.6898741},"lowerCorner":{"lat":48.4070531,"lng":44.1095807}},"id":4565,"hasHighway":false,"hasDistricts":false,"fullNamePrepositional":"Волгоградской области","baseHost":"https:\u002F\u002Fvolgograd.cian.ru","hasNeighbors":false,"lng":44.504639,"parentId":null,"lat":48.718079,"fullName":"Волгоградская область","prepositionalPretext":"в"},{"boundedBy":{"upperCorner":{"lat":61.614232,"lng":47.152878},"lowerCorner":{"lat":58.477315,"lng":34.719093}},"mainTownId":4708,"hasMetro":false,"displayName":"Вологодская область","name":"Вологодская","capitalBoundedBy":{"upperCorner":{"lat":59.28396,"lng":40.028049},"lowerCorner":{"lat":59.167063,"lng":39.732395}},"id":4566,"hasHighway":false,"hasDistricts":false,"fullNamePrepositional":"Вологодской области","baseHost":"https:\u002F\u002Fvologda.cian.ru","hasNeighbors":false,"lng":39.876709,"parentId":null,"lat":59.215241,"fullName":"Вологодская область","prepositionalPretext":"в"},{"boundedBy":{"upperCorner":{"lat":52.10312,"lng":42.947337},"lowerCorner":{"lat":49.55795,"lng":38.137752}},"mainTownId":4713,"hasMetro":false,"displayName":"Воронежская область","name":"Воронежская","capitalBoundedBy":{"upperCorner":{"lat":51.8692154,"lng":39.4582785},"lowerCorner":{"lat":51.4848657,"lng":39.0132338}},"id":4567,"hasHighway":false,"hasDistricts":false,"fullNamePrepositional":"Воронежской области","baseHost":"https:\u002F\u002Fvoronezh.cian.ru","hasNeighbors":false,"lng":39.19741,"parentId":null,"lat":51.660019,"fullName":"Воронежская область","prepositionalPretext":"в"},{"boundedBy":{"upperCorner":{"lat":44.991721,"lng":48.814096},"lowerCorner":{"lat":41.185871,"lng":45.103422}},"mainTownId":4857,"hasMetro":false,"displayName":"Дагестан","name":"Дагестан","capitalBoundedBy":{"upperCorner":{"lat":43.017766,"lng":47.55489},"lowerCorner":{"lat":42.927752,"lng":47.432308}},"id":4568,"hasHighway":false,"hasDistricts":false,"fullNamePrepositional":"Республике Дагестан","baseHost":"https:\u002F\u002Fmahachkala.cian.ru","hasNeighbors":false,"lng":47.493599,"parentId":null,"lat":42.972759,"fullName":"Республика Дагестан","prepositionalPretext":"в"},{"boundedBy":{"upperCorner":{"lat":49.494104,"lng":134.995785},"lowerCorner":{"lat":47.656518,"lng":130.520273}},"mainTownId":4682,"hasMetro":false,"displayName":"Еврейская АО","name":"Еврейская","capitalBoundedBy":{"upperCorner":{"lat":48.8673168,"lng":133.0826082},"lowerCorner":{"lat":48.6981107,"lng":132.7782135}},"id":4569,"hasHighway":false,"hasDistricts":false,"fullNamePrepositional":"Еврейской автономной области","baseHost":"https:\u002F\u002Fbirobidzhan.cian.ru","hasNeighbors":null,"lng":132.899139,"parentId":null,"lat":48.800671,"fullName":"Еврейская автономная область","prepositionalPretext":"в"},{"boundedBy":{"upperCorner":{"lat":57.740504,"lng":43.324612},"lowerCorner":{"lat":56.352311,"lng":39.374037}},"mainTownId":4767,"hasMetro":false,"displayName":"Ивановская область","name":"Ивановская","capitalBoundedBy":{"upperCorner":{"lat":57.070732,"lng":41.1263345},"lowerCorner":{"lat":56.946576,"lng":40.8678799}},"id":4570,"hasHighway":false,"hasDistricts":false,"fullNamePrepositional":"Ивановской области","baseHost":"https:\u002F\u002Fivanovo.cian.ru","hasNeighbors":null,"lng":40.967789,"parentId":null,"lat":56.992409,"fullName":"Ивановская область","prepositionalPretext":"в"},{"boundedBy":{"upperCorner":{"lat":43.614089,"lng":45.247182},"lowerCorner":{"lat":42.61473,"lng":44.478436}},"mainTownId":4853,"hasMetro":false,"displayName":"Ингушетия","name":"Ингушетия","capitalBoundedBy":{"upperCorner":{"lat":43.194943,"lng":44.838401},"lowerCorner":{"lat":43.154154,"lng":44.79574}},"id":4571,"hasHighway":false,"hasDistricts":false,"fullNamePrepositional":"Республике Ингушетия","baseHost":"https:\u002F\u002Fnazran.cian.ru","hasNeighbors":null,"lng":44.770828,"parentId":null,"lat":43.222309,"fullName":"Республика Ингушетия","prepositionalPretext":"в"},{"boundedBy":{"upperCorner":{"lat":64.321545,"lng":119.139315},"lowerCorner":{"lat":51.129489,"lng":95.646271}},"mainTownId":4774,"hasMetro":false,"displayName":"Иркутская область","name":"Иркутская","capitalBoundedBy":{"upperCorner":{"lat":52.4217324,"lng":104.5200868},"lowerCorner":{"lat":52.2094352,"lng":104.0579985}},"id":4572,"hasHighway":false,"hasDistricts":false,"fullNamePrepositional":"Иркутской области","baseHost":"https:\u002F\u002Firkutsk.cian.ru","hasNeighbors":false,"lng":104.30864,"parentId":null,"lat":52.275261,"fullName":"Иркутская область","prepositionalPretext":"в"},{"boundedBy":{"upperCorner":{"lat":44.020314,"lng":44.475368},"lowerCorner":{"lat":42.889536,"lng":42.397268}},"mainTownId":4875,"hasMetro":false,"displayName":"Кабардино-Балкария","name":"Кабардино-Балкарская","capitalBoundedBy":{"upperCorner":{"lat":43.5463304,"lng":43.7088818},"lowerCorner":{"lat":43.385315,"lng":43.4661081}},"id":4573,"hasHighway":false,"hasDistricts":false,"fullNamePrepositional":"Кабардино-Балкарии","baseHost":"https:\u002F\u002Fnalchik.cian.ru","hasNeighbors":null,"lng":43.602989,"parentId":null,"lat":43.48695,"fullName":"Кабардино-Балкарская Республика","prepositionalPretext":"в"},{"boundedBy":{"upperCorner":{"lat":55.384,"lng":22.886684},"lowerCorner":{"lat":54.318778,"lng":19.414152}},"mainTownId":4778,"hasMetro":false,"displayName":"Калининградская область","name":"Калининградская","capitalBoundedBy":{"upperCorner":{"lat":54.7792148,"lng":20.6502012},"lowerCorner":{"lat":54.6319403,"lng":20.2940303}},"id":4574,"hasHighway":false,"hasDistricts":false,"fullNamePrepositional":"Калининградской области","baseHost":"https:\u002F\u002Fkaliningrad.cian.ru","hasNeighbors":false,"lng":20.5068,"parentId":null,"lat":54.711788,"fullName":"Калининградская область","prepositionalPretext":"в"},{"boundedBy":{"upperCorner":{"lat":48.270856,"lng":47.826803},"lowerCorner":{"lat":44.718891,"lng":41.634308}},"mainTownId":5065,"hasMetro":false,"displayName":"Калмыкия","name":"Калмыкия","capitalBoundedBy":{"upperCorner":{"lat":46.357943,"lng":44.318374},"lowerCorner":{"lat":46.267981,"lng":44.188546}},"id":4575,"hasHighway":false,"hasDistricts":false,"fullNamePrepositional":"Республике Калмыкия","baseHost":"https:\u002F\u002Felista.cian.ru","hasNeighbors":null,"lng":44.25346,"parentId":null,"lat":46.312962,"fullName":"Республика Калмыкия","prepositionalPretext":"в"},{"boundedBy":{"upperCorner":{"lat":55.35128,"lng":37.27543},"lowerCorner":{"lat":53.27699,"lng":33.441422}},"mainTownId":4780,"hasMetro":false,"displayName":"Калужская область","name":"Калужская","capitalBoundedBy":{"upperCorner":{"lat":54.7250768,"lng":36.4273197},"lowerCorner":{"lat":54.359149,"lng":35.9736459}},"id":4576,"hasHighway":false,"hasDistricts":false,"fullNamePrepositional":"Калужской области","baseHost":"https:\u002F\u002Fkaluga.cian.ru","hasNeighbors":false,"lng":36.27142,"parentId":null,"lat":54.514679,"fullName":"Калужская область","prepositionalPretext":"в"},{"boundedBy":{"upperCorner":{"lat":64.937469,"lng":174.518872},"lowerCorner":{"lat":50.686734,"lng":155.215243}},"mainTownId":4931,"hasMetro":false,"displayName":"Камчатский край","name":"Камчатский","capitalBoundedBy":{"upperCorner":{"lat":53.1419798,"lng":158.983158786},"lowerCorner":{"lat":52.8852206,"lng":158.5052425}},"id":4577,"hasHighway":false,"hasDistricts":false,"fullNamePrepositional":"Камчатском крае","baseHost":"https:\u002F\u002Fpetropavlovsk-kamchatskiy.cian.ru","hasNeighbors":null,"lng":158.622482,"parentId":null,"lat":53.061562,"fullName":"Камчатский край","prepositionalPretext":"в"},{"boundedBy":{"upperCorner":{"lat":44.497637,"lng":42.681373},"lowerCorner":{"lat":43.187409,"lng":40.675481}},"mainTownId":5051,"hasMetro":false,"displayName":"Карачаево-Черкесия","name":"Карачаево-Черкесская","capitalBoundedBy":{"upperCorner":{"lat":44.2910581,"lng":42.1255309},"lowerCorner":{"lat":44.1591886,"lng":42.0090607}},"id":4578,"hasHighway":false,"hasDistricts":false,"fullNamePrepositional":"Карачаево-Черкесии","baseHost":"https:\u002F\u002Fcherkessk.cian.ru","hasNeighbors":null,"lng":42.06477,"parentId":null,"lat":44.23085,"fullName":"Карачаево-Черкесская Республика","prepositionalPretext":"в"},{"boundedBy":{"upperCorner":{"lat":66.667324,"lng":37.946638},"lowerCorner":{"lat":60.679569,"lng":29.305928}},"mainTownId":4930,"hasMetro":false,"displayName":"Карелия","name":"Карелия","capitalBoundedBy":{"upperCorner":{"lat":61.8614425,"lng":34.6481565},"lowerCorner":{"lat":61.7113837,"lng":34.1848225}},"id":4579,"hasHighway":false,"hasDistricts":false,"fullNamePrepositional":"Республике Карелия","baseHost":"https:\u002F\u002Fpetrozavodsk.cian.ru","hasNeighbors":null,"lng":34.36208,"parentId":null,"lat":61.7822,"fullName":"Республика Карелия","prepositionalPretext":"в"},{"boundedBy":{"upperCorner":{"lat":56.83442,"lng":89.402644},"lowerCorner":{"lat":52.162704,"lng":84.44904}},"mainTownId":4795,"hasMetro":false,"displayName":"Кемеровская область","name":"Кемеровская","capitalBoundedBy":{"upperCorner":{"lat":55.544916,"lng":86.292408},"lowerCorner":{"lat":55.256576,"lng":85.909798}},"id":4580,"hasHighway":false,"hasDistricts":false,"fullNamePrepositional":"Кемеровской области","baseHost":"https:\u002F\u002Fkemerovo.cian.ru","hasNeighbors":null,"lng":86.052437,"parentId":null,"lat":55.371239,"fullName":"Кемеровская область","prepositionalPretext":"в"},{"boundedBy":{"upperCorner":{"lat":61.067393,"lng":53.931242},"lowerCorner":{"lat":56.060762,"lng":46.263784}},"mainTownId":4800,"hasMetro":false,"displayName":"Кировская область","name":"Кировская","capitalBoundedBy":{"upperCorner":{"lat":58.7322396,"lng":49.8171343},"lowerCorner":{"lat":58.4392605,"lng":49.1132107}},"id":4581,"hasHighway":false,"hasDistricts":false,"fullNamePrepositional":"Кировской области","baseHost":"https:\u002F\u002Fkirov.cian.ru","hasNeighbors":false,"lng":49.662659,"parentId":null,"lat":58.596081,"fullName":"Кировская область","prepositionalPretext":"в"},{"boundedBy":{"upperCorner":{"lat":68.422662,"lng":66.251686},"lowerCorner":{"lat":59.198626,"lng":45.39935}},"mainTownId":5006,"hasMetro":false,"displayName":"Коми","name":"Коми","capitalBoundedBy":{"upperCorner":{"lat":61.872091,"lng":51.0234707},"lowerCorner":{"lat":61.6237027,"lng":50.6144957}},"id":4582,"hasHighway":false,"hasDistricts":false,"fullNamePrepositional":"Республике Коми","baseHost":"https:\u002F\u002Fsyktyvkar.cian.ru","hasNeighbors":null,"lng":50.812771,"parentId":null,"lat":61.681862,"fullName":"Республика Коми","prepositionalPretext":"в"},{"boundedBy":{"upperCorner":{"lat":59.623604,"lng":47.639515},"lowerCorner":{"lat":57.272169,"lng":40.390103}},"mainTownId":175050,"hasMetro":false,"displayName":"Костромская область","name":"Костромская","capitalBoundedBy":{"upperCorner":{"lat":57.8857209,"lng":41.0578756},"lowerCorner":{"lat":57.706249,"lng":40.7446545}},"id":4583,"hasHighway":false,"hasDistricts":false,"fullNamePrepositional":"Костромской области","baseHost":"https:\u002F\u002Fkostroma.cian.ru","hasNeighbors":false,"lng":40.936691,"parentId":null,"lat":57.780739,"fullName":"Костромская область","prepositionalPretext":"в"},{"boundedBy":{"upperCorner":{"lat":47.003022,"lng":41.74398},"lowerCorner":{"lat":43.224431,"lng":36.530486}},"mainTownId":4820,"hasMetro":false,"displayName":"Краснодарский край","name":"Краснодарский","capitalBoundedBy":{"upperCorner":{"lat":45.2195943,"lng":39.3850758},"lowerCorner":{"lat":44.9679583,"lng":38.6478637}},"id":4584,"hasHighway":false,"hasDistricts":false,"fullNamePrepositional":"Краснодарском крае","baseHost":"https:\u002F\u002Fkrasnodar.cian.ru","hasNeighbors":false,"lng":38.98064,"parentId":null,"lat":45.042149,"fullName":"Краснодарский край","prepositionalPretext":"в"},{"boundedBy":{"upperCorner":{"lat":81.474181,"lng":114.739629},"lowerCorner":{"lat":51.772621,"lng":74.986851}},"mainTownId":4827,"hasMetro":false,"displayName":"Красноярский край","name":"Красноярский","capitalBoundedBy":{"upperCorner":{"lat":56.134051,"lng":93.171676},"lowerCorner":{"lat":55.9118405,"lng":92.627132}},"id":4585,"hasHighway":false,"hasDistricts":false,"fullNamePrepositional":"Красноярском крае","baseHost":"https:\u002F\u002Fkrasnoyarsk.cian.ru","hasNeighbors":false,"lng":92.88559,"parentId":null,"lat":56.001251,"fullName":"Красноярский край","prepositionalPretext":"в"},{"boundedBy":{"upperCorner":{"lat":56.842297,"lng":68.722664},"lowerCorner":{"lat":54.18731,"lng":61.966185}},"mainTownId":4834,"hasMetro":false,"displayName":"Курганская область","name":"Курганская","capitalBoundedBy":{"upperCorner":{"lat":55.5334332,"lng":65.6731133},"lowerCorner":{"lat":55.2908578,"lng":65.1176161}},"id":4586,"hasHighway":false,"hasDistricts":false,"fullNamePrepositional":"Курганской области","baseHost":"https:\u002F\u002Fkurgan.cian.ru","hasNeighbors":null,"lng":65.342323,"parentId":null,"lat":55.453689,"fullName":"Курганская область","prepositionalPretext":"в"},{"boundedBy":{"upperCorner":{"lat":52.44506,"lng":38.51927},"lowerCorner":{"lat":50.901557,"lng":34.080766}},"mainTownId":4835,"hasMetro":false,"displayName":"Курская область","name":"Курская","capitalBoundedBy":{"upperCorner":{"lat":51.8336183,"lng":36.3038645},"lowerCorner":{"lat":51.6205554,"lng":36.0598307}},"id":4587,"hasHighway":false,"hasDistricts":false,"fullNamePrepositional":"Курской области","baseHost":"https:\u002F\u002Fkursk.cian.ru","hasNeighbors":null,"lng":36.184879,"parentId":null,"lat":51.740261,"fullName":"Курская область","prepositionalPretext":"в"},{"boundedBy":{"upperCorner":{"lat":61.329293,"lng":35.701312},"lowerCorner":{"lat":58.417336,"lng":26.440169}},"mainTownId":2,"hasMetro":false,"displayName":"Ленинградская область","name":"Ленинградская","capitalBoundedBy":{"upperCorner":{"lat":60.244837,"lng":30.759691},"lowerCorner":{"lat":59.633783,"lng":29.42981}},"id":4588,"hasHighway":true,"hasDistricts":false,"fullNamePrepositional":"Ленинградской области","baseHost":"https:\u002F\u002Fspb.cian.ru","hasNeighbors":false,"lng":30.3058,"parentId":null,"lat":59.9385,"fullName":"Ленинградская область","prepositionalPretext":"в"},{"boundedBy":{"upperCorner":{"lat":53.586654,"lng":40.764775},"lowerCorner":{"lat":51.887062,"lng":37.721716}},"mainTownId":4847,"hasMetro":false,"displayName":"Липецкая область","name":"Липецкая","capitalBoundedBy":{"upperCorner":{"lat":52.7294971,"lng":39.8118539},"lowerCorner":{"lat":52.4910307,"lng":39.4085576}},"id":4589,"hasHighway":false,"hasDistricts":false,"fullNamePrepositional":"Липецкой области","baseHost":"https:\u002F\u002Flipetsk.cian.ru","hasNeighbors":false,"lng":39.587681,"parentId":null,"lat":52.605949,"fullName":"Липецкая область","prepositionalPretext":"в"},{"boundedBy":{"upperCorner":{"lat":66.339139,"lng":163.495694},"lowerCorner":{"lat":58.637529,"lng":144.728624}},"mainTownId":4852,"hasMetro":false,"displayName":"Магаданская область","name":"Магаданская","capitalBoundedBy":{"upperCorner":{"lat":60.0001753,"lng":151.1724393},"lowerCorner":{"lat":59.4329224,"lng":150.5003057101}},"id":4590,"hasHighway":false,"hasDistricts":false,"fullNamePrepositional":"Магаданской области","baseHost":"https:\u002F\u002Fmagadan.cian.ru","hasNeighbors":null,"lng":150.81308,"parentId":null,"lat":59.55632,"fullName":"Магаданская область","prepositionalPretext":"в"},{"boundedBy":{"upperCorner":{"lat":57.342865,"lng":50.202985},"lowerCorner":{"lat":55.829454,"lng":45.62374}},"mainTownId":4776,"hasMetro":false,"displayName":"Марий Эл","name":"Марий Эл","capitalBoundedBy":{"upperCorner":{"lat":56.667804,"lng":47.991524},"lowerCorner":{"lat":56.591332,"lng":47.809292}},"id":4591,"hasHighway":false,"hasDistricts":false,"fullNamePrepositional":"Республике Марий Эл","baseHost":"https:\u002F\u002Fyoshkar-ola.cian.ru","hasNeighbors":null,"lng":47.891499,"parentId":null,"lat":56.637501,"fullName":"Республика Марий Эл","prepositionalPretext":"в"},{"boundedBy":{"upperCorner":{"lat":55.190268,"lng":46.729602},"lowerCorner":{"lat":53.643167,"lng":42.164255}},"mainTownId":4967,"hasMetro":false,"displayName":"Мордовия","name":"Мордовия","capitalBoundedBy":{"upperCorner":{"lat":54.2626649,"lng":45.4616138},"lowerCorner":{"lat":53.9919624,"lng":45.0218591}},"id":4592,"hasHighway":false,"hasDistricts":false,"fullNamePrepositional":"Республике Мордовия","baseHost":"https:\u002F\u002Fsaransk.cian.ru","hasNeighbors":false,"lng":45.17569,"parentId":null,"lat":54.181381,"fullName":"Республика Мордовия","prepositionalPretext":"в"},{"boundedBy":{"upperCorner":{"lat":56.958512,"lng":40.205688},"lowerCorner":{"lat":54.255696,"lng":35.148496}},"mainTownId":1,"hasMetro":false,"displayName":"Московская область","name":"Московская","capitalBoundedBy":{"upperCorner":{"lat":56.021224,"lng":37.967428},"lowerCorner":{"lat":55.142175,"lng":36.803101}},"id":4593,"hasHighway":true,"hasDistricts":false,"fullNamePrepositional":"Московской области","baseHost":"https:\u002F\u002Fwww.cian.ru","hasNeighbors":false,"lng":37.6213,"parentId":null,"lat":55.7557,"fullName":"Московская область","prepositionalPretext":"в"},{"boundedBy":{"upperCorner":{"lat":70.152975,"lng":42.505704},"lowerCorner":{"lat":65.691813,"lng":28.416117}},"mainTownId":4871,"hasMetro":false,"displayName":"Мурманская область","name":"Мурманская","capitalBoundedBy":{"upperCorner":{"lat":69.0426786,"lng":33.2941369},"lowerCorner":{"lat":68.8828945,"lng":32.9328749}},"id":4594,"hasHighway":false,"hasDistricts":false,"fullNamePrepositional":"Мурманской области","baseHost":"https:\u002F\u002Fmurmansk.cian.ru","hasNeighbors":null,"lng":33.107051,"parentId":null,"lat":68.953178,"fullName":"Мурманская область","prepositionalPretext":"в"},{"boundedBy":{"upperCorner":{"lat":70.724599,"lng":65.670532},"lowerCorner":{"lat":65.820969,"lng":41.312596}},"mainTownId":4876,"hasMetro":false,"displayName":"Ненецкий АО","name":"Ненецкий","capitalBoundedBy":{"upperCorner":{"lat":67.669434,"lng":53.154654},"lowerCorner":{"lat":67.607439,"lng":52.903099}},"id":4595,"hasHighway":false,"hasDistricts":false,"fullNamePrepositional":"Ненецком автономном округе","baseHost":"https:\u002F\u002Fnaryan-mar.cian.ru","hasNeighbors":null,"lng":53.082001,"parentId":null,"lat":67.669144,"fullName":"Ненецкий автономный округ","prepositionalPretext":"в"},{"boundedBy":{"upperCorner":{"lat":58.091176,"lng":47.771788},"lowerCorner":{"lat":54.462103,"lng":41.776477}},"mainTownId":4885,"hasMetro":false,"displayName":"Нижегородская область","name":"Нижегородская","capitalBoundedBy":{"upperCorner":{"lat":56.4220451,"lng":44.1547721},"lowerCorner":{"lat":56.1559944,"lng":43.5487835}},"id":4596,"hasHighway":false,"hasDistricts":false,"fullNamePrepositional":"Нижегородской области","baseHost":"https:\u002F\u002Fnn.cian.ru","hasNeighbors":null,"lng":44.009192,"parentId":null,"lat":56.329917,"fullName":"Нижегородская область","prepositionalPretext":"в"},{"boundedBy":{"upperCorner":{"lat":59.432763,"lng":36.228919},"lowerCorner":{"lat":56.909067,"lng":29.618726}},"mainTownId":4694,"hasMetro":false,"displayName":"Новгородская область","name":"Новгородская","capitalBoundedBy":{"upperCorner":{"lat":58.6521642,"lng":31.4242552},"lowerCorner":{"lat":58.4687815,"lng":31.1973281}},"id":4597,"hasHighway":false,"hasDistricts":false,"fullNamePrepositional":"Новгородской области","baseHost":"https:\u002F\u002Fnovgorod.cian.ru","hasNeighbors":false,"lng":31.269119,"parentId":null,"lat":58.544971,"fullName":"Новгородская область","prepositionalPretext":"в"},{"boundedBy":{"upperCorner":{"lat":57.235533,"lng":85.116172},"lowerCorner":{"lat":53.29141,"lng":75.08801}},"mainTownId":4897,"hasMetro":false,"displayName":"Новосибирская область","name":"Новосибирская","capitalBoundedBy":{"upperCorner":{"lat":55.19982,"lng":83.160997},"lowerCorner":{"lat":54.800923,"lng":82.751713}},"id":4598,"hasHighway":false,"hasDistricts":false,"fullNamePrepositional":"Новосибирской области","baseHost":"https:\u002F\u002Fnovosibirsk.cian.ru","hasNeighbors":false,"lng":82.927818,"parentId":null,"lat":55.03923,"fullName":"Новосибирская область","prepositionalPretext":"в"},{"boundedBy":{"upperCorner":{"lat":58.576245,"lng":76.306639},"lowerCorner":{"lat":53.435497,"lng":70.358304}},"mainTownId":4914,"hasMetro":false,"displayName":"Омская область","name":"Омская","capitalBoundedBy":{"upperCorner":{"lat":55.1412567,"lng":73.6599421},"lowerCorner":{"lat":54.8240406,"lng":73.0975262}},"id":4599,"hasHighway":false,"hasDistricts":false,"fullNamePrepositional":"Омской области","baseHost":"https:\u002F\u002Fomsk.cian.ru","hasNeighbors":null,"lng":73.393753,"parentId":null,"lat":54.970902,"fullName":"Омская область","prepositionalPretext":"в"},{"boundedBy":{"upperCorner":{"lat":54.365639,"lng":61.689558},"lowerCorner":{"lat":50.494757,"lng":50.768163}},"mainTownId":4915,"hasMetro":false,"displayName":"Оренбургская область","name":"Оренбургская","capitalBoundedBy":{"upperCorner":{"lat":51.94783,"lng":55.604346},"lowerCorner":{"lat":51.443933,"lng":54.98551}},"id":4600,"hasHighway":false,"hasDistricts":false,"fullNamePrepositional":"Оренбургской области","baseHost":"https:\u002F\u002Forenburg.cian.ru","hasNeighbors":false,"lng":55.10371,"parentId":null,"lat":51.768242,"fullName":"Оренбургская область","prepositionalPretext":"в"},{"boundedBy":{"upperCorner":{"lat":53.652491,"lng":38.067214},"lowerCorner":{"lat":51.934992,"lng":34.791971}},"mainTownId":175604,"hasMetro":false,"displayName":"Орловская область","name":"Орловская","capitalBoundedBy":{"upperCorner":{"lat":53.053302,"lng":36.219183},"lowerCorner":{"lat":52.895445,"lng":35.973548}},"id":4601,"hasHighway":false,"hasDistricts":false,"fullNamePrepositional":"Орловской области","baseHost":"https:\u002F\u002Forel.cian.ru","hasNeighbors":false,"lng":36.069494,"parentId":null,"lat":52.968453,"fullName":"Орловская область","prepositionalPretext":"в"},{"boundedBy":{"upperCorner":{"lat":54.03078,"lng":46.981365},"lowerCorner":{"lat":52.291266,"lng":42.08174}},"mainTownId":4923,"hasMetro":false,"displayName":"Пензенская область","name":"Пензенская","capitalBoundedBy":{"upperCorner":{"lat":53.2891503,"lng":45.2309648},"lowerCorner":{"lat":53.1012981,"lng":44.8297531}},"id":4602,"hasHighway":false,"hasDistricts":false,"fullNamePrepositional":"Пензенской области","baseHost":"https:\u002F\u002Fpenza.cian.ru","hasNeighbors":null,"lng":45.010422,"parentId":null,"lat":53.200931,"fullName":"Пензенская область","prepositionalPretext":"в"},{"boundedBy":{"upperCorner":{"lat":61.663067,"lng":59.482731},"lowerCorner":{"lat":56.103883,"lng":51.771541}},"mainTownId":4927,"hasMetro":false,"displayName":"Пермский край","name":"Пермский","capitalBoundedBy":{"upperCorner":{"lat":58.1792804,"lng":56.6566935},"lowerCorner":{"lat":57.8678961,"lng":55.8042579}},"id":4603,"hasHighway":false,"hasDistricts":false,"fullNamePrepositional":"Пермском крае","baseHost":"https:\u002F\u002Fperm.cian.ru","hasNeighbors":false,"lng":56.235279,"parentId":null,"lat":57.99717,"fullName":"Пермский край","prepositionalPretext":"в"},{"boundedBy":{"upperCorner":{"lat":48.464545,"lng":139.309393},"lowerCorner":{"lat":42.170636,"lng":130.39465}},"mainTownId":4701,"hasMetro":false,"displayName":"Приморский край","name":"Приморский","capitalBoundedBy":{"upperCorner":{"lat":43.318979,"lng":132.237863},"lowerCorner":{"lat":42.8981,"lng":131.69636}},"id":4604,"hasHighway":false,"hasDistricts":false,"fullNamePrepositional":"Приморском крае","baseHost":"https:\u002F\u002Fvladivostok.cian.ru","hasNeighbors":null,"lng":131.923828,"parentId":null,"lat":43.130692,"fullName":"Приморский край","prepositionalPretext":"в"},{"boundedBy":{"upperCorner":{"lat":59.021159,"lng":31.51786},"lowerCorner":{"lat":55.588303,"lng":27.317455}},"mainTownId":4946,"hasMetro":false,"displayName":"Псковская область","name":"Псковская","capitalBoundedBy":{"upperCorner":{"lat":57.8789375,"lng":28.4635696},"lowerCorner":{"lat":57.7442228,"lng":28.2545258}},"id":4605,"hasHighway":false,"hasDistricts":false,"fullNamePrepositional":"Псковской области","baseHost":"https:\u002F\u002Fpskov.cian.ru","hasNeighbors":false,"lng":28.33049,"parentId":null,"lat":57.824372,"fullName":"Псковская область","prepositionalPretext":"в"},{"boundedBy":{"upperCorner":{"lat":50.214477,"lng":44.324152},"lowerCorner":{"lat":45.951688,"lng":38.220892}},"mainTownId":4959,"hasMetro":false,"displayName":"Ростовская область","name":"Ростовская","capitalBoundedBy":{"upperCorner":{"lat":47.3687327,"lng":39.8524471},"lowerCorner":{"lat":47.1523996,"lng":39.4047313}},"id":4606,"hasHighway":false,"hasDistricts":false,"fullNamePrepositional":"Ростовской области","baseHost":"https:\u002F\u002Frostov.cian.ru","hasNeighbors":false,"lng":39.715,"parentId":null,"lat":47.233189,"fullName":"Ростовская область","prepositionalPretext":"в"},{"boundedBy":{"upperCorner":{"lat":55.366494,"lng":42.692094},"lowerCorner":{"lat":53.30907,"lng":38.665982}},"mainTownId":4963,"hasMetro":false,"displayName":"Рязанская область","name":"Рязанская","capitalBoundedBy":{"upperCorner":{"lat":54.8120073,"lng":39.8995776},"lowerCorner":{"lat":54.5282508,"lng":39.5367863}},"id":4607,"hasHighway":false,"hasDistricts":false,"fullNamePrepositional":"Рязанской области","baseHost":"https:\u002F\u002Fryazan.cian.ru","hasNeighbors":false,"lng":39.738571,"parentId":null,"lat":54.62466,"fullName":"Рязанская область","prepositionalPretext":"в"},{"boundedBy":{"upperCorner":{"lat":54.677162,"lng":52.568276},"lowerCorner":{"lat":51.773037,"lng":47.930441}},"mainTownId":4966,"hasMetro":false,"displayName":"Самарская область","name":"Самарская","capitalBoundedBy":{"upperCorner":{"lat":53.5518921,"lng":50.3903893},"lowerCorner":{"lat":53.0916732,"lng":49.746897}},"id":4608,"hasHighway":false,"hasDistricts":false,"fullNamePrepositional":"Самарской области","baseHost":"https:\u002F\u002Fsamara.cian.ru","hasNeighbors":false,"lng":50.159618,"parentId":null,"lat":53.20216,"fullName":"Самарская область","prepositionalPretext":"в"},{"boundedBy":{"upperCorner":{"lat":52.819371,"lng":50.83258},"lowerCorner":{"lat":49.80121,"lng":42.503671}},"mainTownId":4969,"hasMetro":false,"displayName":"Саратовская область","name":"Саратовская","capitalBoundedBy":{"upperCorner":{"lat":51.6863794,"lng":46.1601123},"lowerCorner":{"lat":51.4086797,"lng":45.8152164}},"id":4609,"hasHighway":false,"hasDistricts":false,"fullNamePrepositional":"Саратовской области","baseHost":"https:\u002F\u002Fsaratov.cian.ru","hasNeighbors":null,"lng":46.034549,"parentId":null,"lat":51.533269,"fullName":"Саратовская область","prepositionalPretext":"в"},{"boundedBy":{"upperCorner":{"lat":77.309937,"lng":163.105983},"lowerCorner":{"lat":55.487672,"lng":105.508341}},"mainTownId":5073,"hasMetro":false,"displayName":"Саха (Якутия)","name":"Саха (Якутия)","capitalBoundedBy":{"upperCorner":{"lat":62.186608,"lng":129.8567042},"lowerCorner":{"lat":62.135096,"lng":129.7883839}},"id":4610,"hasHighway":false,"hasDistricts":false,"fullNamePrepositional":"Республике Саха (Якутия)","baseHost":"https:\u002F\u002Fyakutsk.cian.ru","hasNeighbors":null,"lng":129.746399,"parentId":null,"lat":62.039261,"fullName":"Республика Саха (Якутия)","prepositionalPretext":"в"},{"boundedBy":{"upperCorner":{"lat":54.625981,"lng":156.831768},"lowerCorner":{"lat":43.177563,"lng":140.922056}},"mainTownId":5069,"hasMetro":false,"displayName":"Сахалинская область","name":"Сахалинская","capitalBoundedBy":{"upperCorner":{"lat":47.2139383,"lng":142.9846314},"lowerCorner":{"lat":46.7791067,"lng":142.44744}},"id":4611,"hasHighway":false,"hasDistricts":false,"fullNamePrepositional":"Сахалинской области","baseHost":"https:\u002F\u002Fyuzhno-sahalinsk.cian.ru","hasNeighbors":null,"lng":142.73198,"parentId":null,"lat":46.961262,"fullName":"Сахалинская область","prepositionalPretext":"в"},{"boundedBy":{"upperCorner":{"lat":61.946615,"lng":66.184857},"lowerCorner":{"lat":56.053224,"lng":57.229384}},"mainTownId":4743,"hasMetro":false,"displayName":"Свердловская область","name":"Свердловская","capitalBoundedBy":{"upperCorner":{"lat":56.9848469,"lng":60.9432759},"lowerCorner":{"lat":56.6039968,"lng":60.0061946}},"id":4612,"hasHighway":false,"hasDistricts":false,"fullNamePrepositional":"Свердловской области","baseHost":"https:\u002F\u002Fekb.cian.ru","hasNeighbors":false,"lng":60.596842,"parentId":null,"lat":56.837814,"fullName":"Свердловская область","prepositionalPretext":"в"},{"boundedBy":{"upperCorner":{"lat":43.835116,"lng":44.960431},"lowerCorner":{"lat":42.546937,"lng":43.398487}},"mainTownId":4702,"hasMetro":false,"displayName":"Северная Осетия-Алания","name":"Северная Осетия - Алания","capitalBoundedBy":{"upperCorner":{"lat":43.1122764,"lng":44.7422969},"lowerCorner":{"lat":42.744751,"lng":44.5530929}},"id":4613,"hasHighway":false,"hasDistricts":false,"fullNamePrepositional":"Северной Осетии-Алании","baseHost":"https:\u002F\u002Fvladikavkaz.cian.ru","hasNeighbors":null,"lng":44.67577,"parentId":null,"lat":43.031231,"fullName":"Республика Северная Осетия - Алания","prepositionalPretext":"в"},{"boundedBy":{"upperCorner":{"lat":56.067054,"lng":35.395003},"lowerCorner":{"lat":53.408691,"lng":30.75157}},"mainTownId":4987,"hasMetro":false,"displayName":"Смоленская область","name":"Смоленская","capitalBoundedBy":{"upperCorner":{"lat":54.8251123,"lng":32.1249877},"lowerCorner":{"lat":54.7291086,"lng":31.9729301}},"id":4614,"hasHighway":false,"hasDistricts":false,"fullNamePrepositional":"Смоленской области","baseHost":"https:\u002F\u002Fsmolensk.cian.ru","hasNeighbors":null,"lng":32.048889,"parentId":null,"lat":54.781101,"fullName":"Смоленская область","prepositionalPretext":"в"},{"boundedBy":{"upperCorner":{"lat":46.236517,"lng":45.715953},"lowerCorner":{"lat":43.658578,"lng":40.846043}},"mainTownId":5001,"hasMetro":false,"displayName":"Ставропольский край","name":"Ставропольский","capitalBoundedBy":{"upperCorner":{"lat":45.1129351,"lng":42.0920482},"lowerCorner":{"lat":44.9685263,"lng":41.6957414}},"id":4615,"hasHighway":false,"hasDistricts":false,"fullNamePrepositional":"Ставропольском крае","baseHost":"https:\u002F\u002Fstavropol.cian.ru","hasNeighbors":null,"lng":41.98214,"parentId":null,"lat":45.039131,"fullName":"Ставропольский край","prepositionalPretext":"в"},{"boundedBy":{"upperCorner":{"lat":53.822577,"lng":43.248087},"lowerCorner":{"lat":51.588084,"lng":39.915694}},"mainTownId":5011,"hasMetro":false,"displayName":"Тамбовская область","name":"Тамбовская","capitalBoundedBy":{"upperCorner":{"lat":52.7724502,"lng":41.5067499},"lowerCorner":{"lat":52.672432,"lng":41.3776773}},"id":4617,"hasHighway":false,"hasDistricts":false,"fullNamePrepositional":"Тамбовской области","baseHost":"https:\u002F\u002Ftambov.cian.ru","hasNeighbors":null,"lng":41.417351,"parentId":null,"lat":52.7211,"fullName":"Тамбовская область","prepositionalPretext":"в"},{"boundedBy":{"upperCorner":{"lat":56.678309,"lng":54.265697},"lowerCorner":{"lat":53.974244,"lng":47.237019}},"mainTownId":4777,"hasMetro":false,"displayName":"Татарстан","name":"Татарстан","capitalBoundedBy":{"upperCorner":{"lat":55.938219,"lng":49.381247},"lowerCorner":{"lat":55.603478,"lng":48.820585}},"id":4618,"hasHighway":false,"hasDistricts":false,"fullNamePrepositional":"Республике Татарстан","baseHost":"https:\u002F\u002Fkazan.cian.ru","hasNeighbors":false,"lng":49.1082,"parentId":null,"lat":55.796538,"fullName":"Республика Татарстан","prepositionalPretext":"в"},{"boundedBy":{"upperCorner":{"lat":58.863139,"lng":38.326858},"lowerCorner":{"lat":55.632035,"lng":30.728387}},"mainTownId":176083,"hasMetro":false,"displayName":"Тверская область","name":"Тверская","capitalBoundedBy":{"upperCorner":{"lat":56.936062,"lng":36.068207},"lowerCorner":{"lat":56.783325,"lng":35.721417}},"id":4619,"hasHighway":false,"hasDistricts":false,"fullNamePrepositional":"Тверской области","baseHost":"https:\u002F\u002Ftver.cian.ru","hasNeighbors":false,"lng":35.923828,"parentId":null,"lat":56.857929,"fullName":"Тверская область","prepositionalPretext":"в"},{"boundedBy":{"upperCorner":{"lat":61.035672,"lng":89.379033},"lowerCorner":{"lat":55.66466,"lng":75.056665}},"mainTownId":5016,"hasMetro":false,"displayName":"Томская область","name":"Томская","capitalBoundedBy":{"upperCorner":{"lat":56.6934647,"lng":85.1501533},"lowerCorner":{"lat":56.3672037,"lng":84.8138967}},"id":4620,"hasHighway":false,"hasDistricts":false,"fullNamePrepositional":"Томской области","baseHost":"https:\u002F\u002Ftomsk.cian.ru","hasNeighbors":null,"lng":84.962548,"parentId":null,"lat":56.463989,"fullName":"Томская область","prepositionalPretext":"в"},{"boundedBy":{"upperCorner":{"lat":54.851837,"lng":38.951545},"lowerCorner":{"lat":52.946357,"lng":35.898555}},"mainTownId":5020,"hasMetro":false,"displayName":"Тульская область","name":"Тульская","capitalBoundedBy":{"upperCorner":{"lat":54.3006964,"lng":37.7390927},"lowerCorner":{"lat":54.0878106,"lng":37.4928714}},"id":4621,"hasHighway":false,"hasDistricts":false,"fullNamePrepositional":"Тульской области","baseHost":"https:\u002F\u002Ftula.cian.ru","hasNeighbors":null,"lng":37.617828,"parentId":null,"lat":54.196678,"fullName":"Тульская область","prepositionalPretext":"в"},{"boundedBy":{"upperCorner":{"lat":53.72893,"lng":99.273846},"lowerCorner":{"lat":49.7445,"lng":88.791531}},"mainTownId":4837,"hasMetro":false,"displayName":"Тыва","name":"Тыва","capitalBoundedBy":{"upperCorner":{"lat":51.8117138,"lng":94.640535},"lowerCorner":{"lat":51.5504648,"lng":94.2714722}},"id":4622,"hasHighway":false,"hasDistricts":false,"fullNamePrepositional":"Республике Тыва","baseHost":"https:\u002F\u002Fkyzyl.cian.ru","hasNeighbors":null,"lng":94.417397,"parentId":null,"lat":51.721909,"fullName":"Республика Тыва","prepositionalPretext":"в"},{"boundedBy":{"upperCorner":{"lat":59.989559,"lng":75.199295},"lowerCorner":{"lat":55.1471,"lng":64.827192}},"mainTownId":5024,"hasMetro":false,"displayName":"Тюменская область","name":"Тюменская","capitalBoundedBy":{"upperCorner":{"lat":57.277846,"lng":65.815082},"lowerCorner":{"lat":56.998338,"lng":65.257267}},"id":4623,"hasHighway":false,"hasDistricts":false,"fullNamePrepositional":"Тюменской области","baseHost":"https:\u002F\u002Ftyumen.cian.ru","hasNeighbors":false,"lng":65.51564,"parentId":null,"lat":57.154949,"fullName":"Тюменская область","prepositionalPretext":"в"},{"boundedBy":{"upperCorner":{"lat":58.545842,"lng":54.436131},"lowerCorner":{"lat":55.850578,"lng":51.124165}},"mainTownId":4770,"hasMetro":false,"displayName":"Удмуртия","name":"Удмуртская","capitalBoundedBy":{"upperCorner":{"lat":57.0036458,"lng":53.3924577},"lowerCorner":{"lat":56.7164064,"lng":53.006558}},"id":4624,"hasHighway":false,"hasDistricts":false,"fullNamePrepositional":"Республике Удмуртия","baseHost":"https:\u002F\u002Fizhevsk.cian.ru","hasNeighbors":false,"lng":53.224449,"parentId":null,"lat":56.842609,"fullName":"Удмуртская Республика","prepositionalPretext":"в"},{"boundedBy":{"upperCorner":{"lat":54.891446,"lng":50.243401},"lowerCorner":{"lat":52.532669,"lng":45.79672}},"mainTownId":5027,"hasMetro":false,"displayName":"Ульяновская область","name":"Ульяновская","capitalBoundedBy":{"upperCorner":{"lat":54.4266048,"lng":48.7145894},"lowerCorner":{"lat":54.1398494,"lng":48.0496108}},"id":4625,"hasHighway":false,"hasDistricts":false,"fullNamePrepositional":"Ульяновской области","baseHost":"https:\u002F\u002Fulyanovsk.cian.ru","hasNeighbors":null,"lng":48.38565,"parentId":null,"lat":54.32148,"fullName":"Ульяновская область","prepositionalPretext":"в"},{"boundedBy":{"upperCorner":{"lat":62.531587,"lng":147.216789},"lowerCorner":{"lat":46.634961,"lng":130.386742}},"mainTownId":5039,"hasMetro":false,"displayName":"Хабаровский край","name":"Хабаровский","capitalBoundedBy":{"upperCorner":{"lat":48.6030655,"lng":135.2215444},"lowerCorner":{"lat":48.326559,"lng":134.8968984}},"id":4627,"hasHighway":false,"hasDistricts":false,"fullNamePrepositional":"Хабаровском крае","baseHost":"https:\u002F\u002Fhabarovsk.cian.ru","hasNeighbors":null,"lng":135.09407,"parentId":null,"lat":48.476719,"fullName":"Хабаровский край","prepositionalPretext":"в"},{"boundedBy":{"upperCorner":{"lat":55.437878,"lng":91.924731},"lowerCorner":{"lat":51.285126,"lng":87.882589}},"mainTownId":4638,"hasMetro":false,"displayName":"Хакасия","name":"Хакасия","capitalBoundedBy":{"upperCorner":{"lat":53.7525989,"lng":91.5704699},"lowerCorner":{"lat":53.6073359,"lng":91.2836879}},"id":4628,"hasHighway":false,"hasDistricts":false,"fullNamePrepositional":"Республике Хакасия","baseHost":"https:\u002F\u002Fabakan.cian.ru","hasNeighbors":null,"lng":91.461189,"parentId":null,"lat":53.729172,"fullName":"Республика Хакасия","prepositionalPretext":"в"},{"boundedBy":{"upperCorner":{"lat":65.717736,"lng":85.976673},"lowerCorner":{"lat":58.579853,"lng":59.203794}},"mainTownId":5041,"hasMetro":false,"displayName":"Ханты-Мансийский АО","name":"Ханты-Мансийский","capitalBoundedBy":{"upperCorner":{"lat":61.1131067,"lng":69.4229748},"lowerCorner":{"lat":60.9075467,"lng":68.9313808}},"id":4629,"hasHighway":false,"hasDistricts":false,"fullNamePrepositional":"Ханты-Мансийском автономном округе","baseHost":"https:\u002F\u002Fhmao.cian.ru","hasNeighbors":null,"lng":69.006241,"parentId":null,"lat":61.00079,"fullName":"Ханты-Мансийский автономный округ","prepositionalPretext":"в"},{"boundedBy":{"upperCorner":{"lat":56.365798,"lng":63.352015},"lowerCorner":{"lat":51.990784,"lng":57.131288}},"mainTownId":5048,"hasMetro":false,"displayName":"Челябинская область","name":"Челябинская","capitalBoundedBy":{"upperCorner":{"lat":55.320855,"lng":61.591558},"lowerCorner":{"lat":55.0115,"lng":61.1436416}},"id":4630,"hasHighway":false,"hasDistricts":false,"fullNamePrepositional":"Челябинской области","baseHost":"https:\u002F\u002Fchelyabinsk.cian.ru","hasNeighbors":false,"lng":61.40258,"parentId":null,"lat":55.159889,"fullName":"Челябинская область","prepositionalPretext":"в"},{"boundedBy":{"upperCorner":{"lat":44.008596,"lng":46.662041},"lowerCorner":{"lat":42.478227,"lng":44.833205}},"mainTownId":4723,"hasMetro":false,"displayName":"Чечня","name":"Чеченская","capitalBoundedBy":{"upperCorner":{"lat":43.406214,"lng":45.815513},"lowerCorner":{"lat":43.210513,"lng":45.436275}},"id":4631,"hasHighway":false,"hasDistricts":false,"fullNamePrepositional":"Республике Чечня","baseHost":"https:\u002F\u002Fgroznyy.cian.ru","hasNeighbors":null,"lng":45.670391,"parentId":null,"lat":43.309841,"fullName":"Чеченская Республика","prepositionalPretext":"в"},{"boundedBy":{"upperCorner":{"lat":56.328518,"lng":48.420602},"lowerCorner":{"lat":54.627395,"lng":45.911256}},"mainTownId":5047,"hasMetro":false,"displayName":"Чувашия","name":"Чувашская","capitalBoundedBy":{"upperCorner":{"lat":56.2086433,"lng":47.4651974},"lowerCorner":{"lat":56.0513127,"lng":47.0475078}},"id":4633,"hasHighway":false,"hasDistricts":false,"fullNamePrepositional":"Республике Чувашия","baseHost":"https:\u002F\u002Fcheboksary.cian.ru","hasNeighbors":false,"lng":47.24403,"parentId":null,"lat":56.137451,"fullName":"Чувашская Республика","prepositionalPretext":"в"},{"boundedBy":{"upperCorner":{"lat":70.32417,"lng":180},"lowerCorner":{"lat":61.607801,"lng":157.730566}},"mainTownId":4648,"hasMetro":false,"displayName":"Чукотский АО","name":"Чукотский","capitalBoundedBy":{"upperCorner":{"lat":64.7443118,"lng":177.5393823},"lowerCorner":{"lat":64.6957778,"lng":177.3881497}},"id":4634,"hasHighway":false,"hasDistricts":false,"fullNamePrepositional":"Чукотском автономном округе","baseHost":"https:\u002F\u002Fanadyr.cian.ru","hasNeighbors":null,"lng":177.477371,"parentId":null,"lat":64.736656,"fullName":"Чукотский автономный округ","prepositionalPretext":"в"},{"boundedBy":{"upperCorner":{"lat":73.721756,"lng":86.007285},"lowerCorner":{"lat":62.195657,"lng":62.000444}},"mainTownId":4965,"hasMetro":false,"displayName":"Ямало-Ненецкий АО","name":"Ямало-Ненецкий","capitalBoundedBy":{"upperCorner":{"lat":66.6524541,"lng":66.9039868},"lowerCorner":{"lat":66.0436801,"lng":66.0224963}},"id":4635,"hasHighway":false,"hasDistricts":false,"fullNamePrepositional":"Ямало-Ненецком автономном округе","baseHost":"https:\u002F\u002Fyanao.cian.ru","hasNeighbors":false,"lng":66.602432,"parentId":null,"lat":66.530937,"fullName":"Ямало-Ненецкий автономный округ","prepositionalPretext":"в"},{"boundedBy":{"upperCorner":{"lat":58.956012,"lng":41.193498},"lowerCorner":{"lat":56.534344,"lng":37.327909}},"mainTownId":5075,"hasMetro":false,"displayName":"Ярославская область","name":"Ярославская","capitalBoundedBy":{"upperCorner":{"lat":57.7747382,"lng":40.0033332},"lowerCorner":{"lat":57.5306297,"lng":39.7317415}},"id":4636,"hasHighway":false,"hasDistricts":false,"fullNamePrepositional":"Ярославской области","baseHost":"https:\u002F\u002Fyaroslavl.cian.ru","hasNeighbors":null,"lng":39.865631,"parentId":null,"lat":57.6301,"fullName":"Ярославская область","prepositionalPretext":"в"},{"boundedBy":{"upperCorner":{"lat":44.994991,"lng":34.163358},"lowerCorner":{"lat":44.905009,"lng":34.036642}},"mainTownId":184734,"hasMetro":false,"displayName":"Крым","name":"Крым","capitalBoundedBy":{"upperCorner":{"lat":45.076051,"lng":34.188246},"lowerCorner":{"lat":44.888045,"lng":33.96478}},"id":181462,"hasHighway":false,"hasDistricts":false,"fullNamePrepositional":"Республике Крым","baseHost":"https:\u002F\u002Fkrym.cian.ru","hasNeighbors":null,"lng":34.1,"parentId":null,"lat":44.95,"fullName":"Республика Крым","prepositionalPretext":"в"},{"boundedBy":{"upperCorner":{"lat":44.959445,"lng":33.897496},"lowerCorner":{"lat":44.207248,"lng":33.198679}},"mainTownId":null,"hasMetro":false,"displayName":"Севастополь","name":"Севастополь","capitalBoundedBy":null,"id":184723,"hasHighway":false,"hasDistricts":true,"fullNamePrepositional":"Севастополе","baseHost":"https:\u002F\u002Fsevastopol.cian.ru","hasNeighbors":true,"lng":33.5333333,"parentId":null,"lat":44.6,"fullName":"Севастополь","prepositionalPretext":"в"},{"boundedBy":{"upperCorner":{"lat":52.090365,"lng":113.571504},"lowerCorner":{"lat":52.000492,"lng":113.42575}},"mainTownId":5053,"hasMetro":false,"displayName":"Забайкальский край","name":"Забайкальский","capitalBoundedBy":{"upperCorner":{"lat":52.173025,"lng":113.6537796},"lowerCorner":{"lat":51.9450782,"lng":113.1303719}},"id":187450,"hasHighway":false,"hasDistricts":false,"fullNamePrepositional":"Забайкальском крае","baseHost":"https:\u002F\u002Fchita.cian.ru","hasNeighbors":null,"lng":113.498627,"parentId":null,"lat":52.045429,"fullName":"Забайкальский край","prepositionalPretext":"в"}],"currentLocation":{"boundedBy":{"upperCorner":{"lat":56.4220451,"lng":44.1547721},"lowerCorner":{"lat":56.1559944,"lng":43.5487835}},"mainTownId":null,"hasMetro":true,"displayName":"Нижний Новгород","name":"Нижний Новгород","hasHighway":false,"hasDistricts":true,"id":4885,"lng":44.009192,"parentId":4596,"lat":56.329917,"fullName":"Нижний Новгород г.","hasNeighbors":true},"locationSwitcher":{"isCitiesLoading":false,"isLocationSwitcherOpened":false,"isAutocompleteLoading":false},"districtsSwitcher":{"isDataLoading":false,"selectedDistricts":[]},"directionsModal":{"data":[],"isVisible":false}},"lastModified":null,"print":{"enabled":false,"showComments":true,"showPhones":true},"results":{"avgPriceInformer":{"price":5204314,"currency":"rur"},"queryString":"deal_type=sale&engine_version=2&offer_type=flat&region=4885&room1=1&room2=1&room3=1&room4=1&room5=1&room6=1&room7=1&room9=1","quickLinks":{"links":[{"url":"\u002Fcat.php?deal_type=sale&engine_version=2&is_by_homeowner=1&offer_type=flat&region=4885&room1=1&room2=1&room3=1&room4=1&room5=1&room6=1&room7=1&room9=1","offersCount":552,"title":"вторичка без посредников"}],"level":1},"qsToUris":{},"jsonQuery":{"region":{"type":"terms","value":[4885]},"_type":"flatsale","engine_version":{"type":"term","value":2},"room":{"type":"terms","value":[1,2,3,4,5,6,7,9]}},"offers":[{"addedTimestamp":1636451636,"kp":null,"descriptionWordsHighlighted":[],"isRecidivist":false,"phones":[{"number":"8312344034","countryCode":"7"}],"dealRentVersion":null,"bargainTerms":{"bargainAllowed":null,"currency":"rur","paymentPeriod":null,"price":6850000,"vatPrice":null,"saleType":"fz214","leaseTermType":null,"priceType":"all","deposit":null,"leaseType":null,"priceForWorkplace":null,"clientFee":null,"utilitiesTerms":null,"agentFee":null,"priceRur":6850000,"mortgageAllowed":null,"vatType":null,"agentBonus":null},"id":261414627,"status":"published","dealType":"sale","livingArea":null,"roomArea":null,"roomsForSaleCount":null,"bedroomsCount":null,"allFromOffrep":null,"title":null,"showWarningMessage":false,"fromDeveloper":true,"accessType":null,"description":"Продаётся 2-комнатная квартира в строящемся доме (дом 2), срок сдачи: II-кв. 2024, общей площадью 69.9 кв.м., на 3 этаже. Проект комфорт-класса от компании \"ННДК\", расположен в десяти минутах от центра города. ЖК \"Корица\" уникален тем, что каждая квартира оснащена системой \"умный дом\", комплектацию которого вы можете выбрать сами. \nТакже мы предлагаем вам на выбор четыре вида улучшенной отделки, варианты которой вы можете посмотреть в конфигураторе на нашем сайте. На первом этаже расположен тренажёрный зал, который жители могут посещать бесплатно и в любое удобное время. \nЗакрытая дворовая территория, с индивидуальным ландшафтным дизайном станет излюбленным местом отдыха для каждого. Детская площадка, зона для занятия спортом и отдельная парковка для велосипедов.","readyBusinessType":null,"descriptionMinhash":[49472650,8359824,23002496,23029933,15477271,135674231,9695767,32823506,72021997,46609375,11419043,1006418,30739180,2039279,13180383,20027111,89953279,1669712,53380155,69376097,3708820,31947154,9979499,21675051,9460550,49129368,225344,28248392,71039267,20966095,2202004,40976764],"promoInfo":null,"areaParts":null,"geo":{"highways":[],"jk":{"name":"Корица","webSiteUrlUtm":"http:\u002F\u002Fжк-корица.рф\u002F?utm_source=cian&utm_medium=kartochka_cian&utm_campaign=2024474","house":{"id":6585050,"name":"дом 2"},"gaGeo":{"cityId":4885,"moId":0,"oblId":4596},"id":2024474,"displayName":"ЖК «Корица»","fullUrl":"https:\u002F\u002Fnn.cian.ru\u002Fzhiloy-kompleks-korica-nizhniy-novgorod-2024474\u002F","webSiteUrl":"http:\u002F\u002Fжк-корица.рф\u002F","developer":{"id":null,"name":"ННДК"}},"userInput":"Нижний Новгород, улица Александра Хохлова","coordinates":{"lat":56.30200122565071,"lng":44.06814552247455},"districts":[{"geoType":"district","locationId":4885,"name":"Нижегородский","id":254,"type":"raion","title":"р-н Нижегородский","fullName":"р-н Нижегородский","qs":"deal_type=sale&district%5B0%5D=254&engine_version=2&offer_type=flat&room1=1&room2=1&room3=1&room4=1&room5=1&room6=1&room7=1&room9=1","parentId":null}],"buildingAddress":null,"address":[{"isFormingAddress":true,"geoType":"location","name":"Нижегородская","id":4596,"type":"location","title":"Нижегородская область","fullName":"Нижегородская область","locationTypeId":2,"shortName":"Нижегородская область","qs":"deal_type=sale&engine_version=2&offer_type=flat&region=4596&room1=1&room2=1&room3=1&room4=1&room5=1&room6=1&room7=1&room9=1"},{"isFormingAddress":true,"geoType":"location","name":"Нижний Новгород","id":4885,"type":"location","title":"Нижний Новгород","fullName":"Нижний Новгород","locationTypeId":1,"shortName":"Нижний Новгород","qs":"deal_type=sale&engine_version=2&offer_type=flat&region=4885&room1=1&room2=1&room3=1&room4=1&room5=1&room6=1&room7=1&room9=1"},{"isFormingAddress":null,"geoType":"district","name":"Нижегородский","id":254,"type":"raion","title":"р-н Нижегородский","fullName":"р-н Нижегородский","locationTypeId":null,"shortName":"р-н Нижегородский","qs":"deal_type=sale&district%5B0%5D=254&engine_version=2&offer_type=flat&room1=1&room2=1&room3=1&room4=1&room5=1&room6=1&room7=1&room9=1"},{"isFormingAddress":null,"geoType":"underground","name":"Горьковская","id":323,"type":"metro","title":"м. Горьковская","fullName":"м. Горьковская","locationTypeId":null,"shortName":"м. Горьковская","qs":"deal_type=sale&engine_version=2&metro%5B0%5D=323&offer_type=flat&room1=1&room2=1&room3=1&room4=1&room5=1&room6=1&room7=1&room9=1"},{"isFormingAddress":true,"geoType":"street","name":"Александра Хохлова","id":707543,"type":"street","title":"улица Александра Хохлова","fullName":"улица Александра Хохлова","locationTypeId":null,"shortName":"ул. Александра Хохлова","qs":"deal_type=sale&engine_version=2&offer_type=flat&room1=1&room2=1&room3=1&room4=1&room5=1&room6=1&room7=1&room9=1&street%5B0%5D=707543"}],"countryId":138,"undergrounds":[{"cianId":null,"releaseYear":null,"name":"Горьковская","time":7,"lineColor":"CF0000","id":323,"transportType":"transport","lineId":24,"qs":"deal_type=sale&engine_version=2&metro%5B0%5D=323&offer_type=flat&room1=1&room2=1&room3=1&room4=1&room5=1&room6=1&room7=1&room9=1","isDefault":true,"underConstruction":false},{"cianId":null,"releaseYear":null,"name":"Стрелка","time":11,"lineColor":"03238B","id":360,"transportType":"transport","lineId":25,"qs":"deal_type=sale&engine_version=2&metro%5B0%5D=360&offer_type=flat&room1=1&room2=1&room3=1&room4=1&room5=1&room6=1&room7=1&room9=1","isDefault":null,"underConstruction":false},{"cianId":null,"releaseYear":null,"name":"Московская","time":12,"lineColor":"CF0000","id":324,"transportType":"transport","lineId":24,"qs":"deal_type=sale&engine_version=2&metro%5B0%5D=324&offer_type=flat&room1=1&room2=1&room3=1&room4=1&room5=1&room6=1&room7=1&room9=1","isDefault":null,"underConstruction":false}],"railways":[],"sortedGeoIds":[{"type":"underground","id":323},{"type":"underground","id":360},{"type":"underground","id":324},{"type":"district","id":254}]},"added":"сегодня, 12:53","category":"newBuildingFlatSale","moderationInfo":{"showContactWarningMessage":false,"photoStub":null,"warningMessage":null},"isCommercialOwnershipVerified":null,"building":{"buildYear":null,"cargoLiftsCount":null,"floorsCount":19,"type":null,"deadline":{"isComplete":false,"quarter":"second","quarterEnd":"2024-06-30","year":2024},"materialType":"monolith","accessType":null,"passengerLiftsCount":null,"heatingType":null},"newbuilding":{"showJkReliableFlag":false,"isSalesLeader":null,"isFromDeveloper":true,"name":"Корица","house":{"finishDate":{"quarter":2,"year":2024},"isFinished":false,"id":6585050,"name":"дом 2"},"id":2024474,"isFromBuilder":true,"isFromLeadFactory":false,"hasFlatTourBooking":false,"isFromSeller":true},"similar":null,"creationDate":"2021-07-29T16:14:34.577","booking":null,"balconiesCount":null,"isAuction":true,"cianUserId":76620248,"workTimeInfo":{"isAvailable":true,"callFrom":"10:00:00","timezoneText":"Московскому","callTo":"19:00:00"},"isNew":false,"isByCommercialOwner":null,"isByHomeowner":null,"shareAmount":null,"layout":null,"kitchenArea":null,"jkUrl":"https:\u002F\u002Fnn.cian.ru\u002Fzhiloy-kompleks-korica-nizhniy-novgorod-2024474\u002F","isRentByParts":false,"isColorized":false,"isNeedHideExactAddress":false,"businessShoppingCenter":null,"monthlyIncome":null,"garage":null,"demolishedInMoscowProgramm":null,"flatType":"rooms","videos":[],"totalArea":"69.9","fullUrl":"https:\u002F\u002Fnn.cian.ru\u002Fsale\u002Fflat\u002F261414627\u002F","workplaceCount":null,"isExcludedFromAction":false,"loggiasCount":null,"coworking":null,"minArea":null,"offerInDeal":false,"specialty":{"specialties":[],"types":[],"additionalTypes":[]},"basicProfiScore":1,"land":null,"rentByPartsDescription":null,"isPaid":false,"categoriesIds":[1,100,110,113],"userId":76620248,"cianId":261414627,"isTop3":true,"isInHiddenBase":false,"floorNumber":3,"publishedUserId":76620248,"isApartments":false,"villageMortgageAllowed":false,"roomsCount":2,"humanizedTimedelta":"7 часов назад","isImported":true,"rosreestrCheck":null,"officeType":null,"isPremium":false,"offerType":"flat","permittedUseType":null,"photos":[{"isLayout":null,"thumbnailUrl":"https:\u002F\u002Fcdn-p.cian.site\u002Fimages\u002F37\u002F538\u002F211\u002F1128357353-2.jpg","id":1128357353,"miniUrl":"https:\u002F\u002Fcdn-p.cian.site\u002Fimages\u002F37\u002F538\u002F211\u002F1128357353-3.jpg","fullUrl":"https:\u002F\u002Fcdn-p.cian.site\u002Fimages\u002F37\u002F538\u002F211\u002F1128357353-1.jpg","thumbnail2Url":"https:\u002F\u002Fcdn-p.cian.site\u002Fimages\u002F37\u002F538\u002F211\u002F1128357353-4.jpg","isDefault":false,"rotateDegree":null},{"isLayout":null,"thumbnailUrl":"https:\u002F\u002Fcdn-p.cian.site\u002Fimages\u002F47\u002F538\u002F211\u002F1128357408-2.jpg","id":1128357408,"miniUrl":"https:\u002F\u002Fcdn-p.cian.site\u002Fimages\u002F47\u002F538\u002F211\u002F1128357408-3.jpg","fullUrl":"https:\u002F\u002Fcdn-p.cian.site\u002Fimages\u002F47\u002F538\u002F211\u002F1128357408-1.jpg","thumbnail2Url":"https:\u002F\u002Fcdn-p.cian.site\u002Fimages\u002F47\u002F538\u002F211\u002F1128357408-4.jpg","isDefault":false,"rotateDegree":null},{"isLayout":null,"thumbnailUrl":"https:\u002F\u002Fcdn-p.cian.site\u002Fimages\u002F47\u002F538\u002F211\u002F1128357489-2.jpg","id":1128357489,"miniUrl":"https:\u002F\u002Fcdn-p.cian.site\u002Fimages\u002F47\u002F538\u002F211\u002F1128357489-3.jpg","fullUrl":"https:\u002F\u002Fcdn-p.cian.site\u002Fimages\u002F47\u002F538\u002F211\u002F1128357489-1.jpg","thumbnail2Url":"https:\u002F\u002Fcdn-p.cian.site\u002Fimages\u002F47\u002F538\u002F211\u002F1128357489-4.jpg","isDefault":false,"rotateDegree":null},{"isLayout":null,"thumbnailUrl":"https:\u002F\u002Fcdn-p.cian.site\u002Fimages\u002F57\u002F538\u002F211\u002F1128357544-2.jpg","id":1128357544,"miniUrl":"https:\u002F\u002Fcdn-p.cian.site\u002Fimages\u002F57\u002F538\u002F211\u002F1128357544-3.jpg","fullUrl":"https:\u002F\u002Fcdn-p.cian.site\u002Fimages\u002F57\u002F538\u002F211\u002F1128357544-1.jpg","thumbnail2Url":"https:\u002F\u002Fcdn-p.cian.site\u002Fimages\u002F57\u002F538\u002F211\u002F1128357544-4.jpg","isDefault":false,"rotateDegree":null},{"isLayout":null,"thumbnailUrl":"https:\u002F\u002Fcdn-p.cian.site\u002Fimages\u002F57\u002F538\u002F211\u002F1128357581-2.jpg","id":1128357581,"miniUrl":"https:\u002F\u002Fcdn-p.cian.site\u002Fimages\u002F57\u002F538\u002F211\u002F1128357581-3.jpg","fullUrl":"https:\u002F\u002Fcdn-p.cian.site\u002Fimages\u002F57\u002F538\u002F211\u002F1128357581-1.jpg","thumbnail2Url":"https:\u002F\u002Fcdn-p.cian.site\u002Fimages\u002F57\u002F538\u002F211\u002F1128357581-4.jpg","isDefault":false,"rotateDegree":null}],"decoration":null,"newbuildingVasPromotion":null,"coworkingOfferType":null,"isCalltrackingEnabled":true,"isDuplicatedDescription":false,"isFavorite":false,"notes":{"offer":null,"realtor":null},"user":{"accountType":"agency","agencyName":"ННДК","agentAvatarUrl":"https:\u002F\u002Fwww.cian.ru\u002Favatar.axd?i=42699318&t=2&p=2","billingInfo":{"accountType":1,"packages":[{"countryId":138,"depositRequired":false,"geoName":"Нижегородская область","locationId":4596,"packageTypeId":5,"packageTypeName":"Застройщик"}],"removeCompetitor":false,"replenishDisabled":true},"cianProfileStatus":"approved","cianUserId":"76620248","companyName":"ННДК","isAgent":true,"isBuilder":true,"isCallbackUser":true,"isChatsEnabled":true,"isHidden":false,"isPassportVerified":false,"isSelfEmployed":false,"isSubAgent":false,"phoneNumbers":[{"countryCode":"+7","number":"9202913391"}],"userTrustLevel":"notInvolved","userId":76620248,"userType":"developer","isCianPartner":false,"canShowOnline":false,"agentModerationInfo":{"isUserIdentified":false,"isUserIdentifiedByDocuments":false},"personalRating":null,"agentAvailability":{"available":false,"availableFrom":"2021-11-10T10:00:00+03:00","availableTo":"2021-11-10T19:00:00+03:00","message":"Напишите ему или позвоните завтра.","title":"Специалист работает с 10:00 по 19:00.","userId":76620248}},"isPro":true,"gaLabel":"\u002Fsale\u002Fflat\u002Fmo_id=0\u002Fobl_id=4596\u002Fcity_id=4885\u002Fobject_type=2\u002Fga_obj_type=2\u002Fspec=company\u002F261414627\u002Ffrom_developer=1\u002Frepres=0\u002Fowner=0\u002Fpod_snos=0\u002Fnv=0\u002F","adfoxParams":{"puid1":"deal_type_sale","puid2":"offer_flat","puid3":"sale_type_first","puid4":"offer_type_2","puid5":"obl_id_4596","puid6":"3001_7000","puid8":6850000,"puid9":323,"puid10":"no_agent","puid16":"false","puid17":"false","puid18":2024474,"puid19":"not_video","puid36":4885},"chatId":null,"chat":null,"auction":null,"savedSearchLabels":[],"isDealRequestSubstitutionPhone":false,"isNewbuildingTourAvailable":false,"comparisonStatus":{"status":"available","description":"Добавить к сравнению"},"photoFeatureIcons":[],"offerFeatureLabels":[],"factoids":[{"type":"houseFinishDate","title":"Сдача корпуса","text":"2 кв 2024"},{"type":"house","title":"Корпус","text":"дом 2"}],"isCianPartner":false,"newbuildingDynamicCalltracking":{"siteBlockId":null}},{"addedTimestamp":1636451551,"kp":null,"descriptionWordsHighlighted":[],"isRecidivist":false,"phones":[{"number":"8312344034","countryCode":"7"}],"dealRentVersion":null,"bargainTerms":{"bargainAllowed":null,"currency":"rur","paymentPeriod":null,"price":5650000,"vatPrice":null,"saleType":"fz214","leaseTermType":null,"priceType":"all","deposit":null,"leaseType":null,"priceForWorkplace":null,"clientFee":null,"utilitiesTerms":null,"agentFee":null,"priceRur":5650000,"mortgageAllowed":null,"vatType":null,"agentBonus":null},"id":261414396,"status":"published","dealType":"sale","livingArea":null,"roomArea":null,"roomsForSaleCount":null,"bedroomsCount":null,"allFromOffrep":null,"title":null,"showWarningMessage":false,"fromDeveloper":true,"accessType":null,"description":"Продаётся 1-комнатная квартира в строящемся доме (дом 2), срок сдачи: II-кв. 2024, общей площадью 45.7 кв.м., на 11 этаже. Проект комфорт-класса от компании \"ННДК\", расположен в десяти минутах от центра города. ЖК \"Корица\" уникален тем, что каждая квартира оснащена системой \"умный дом\", комплектацию которого вы можете выбрать сами. \nТакже мы предлагаем вам на выбор четыре вида улучшенной отделки, варианты которой вы можете посмотреть в конфигураторе на нашем сайте. На первом этаже расположен тренажёрный зал, который жители могут посещать бесплатно и в любое удобное время. \nЗакрытая дворовая территория, с индивидуальным ландшафтным дизайном станет излюбленным местом отдыха для каждого. Детская площадка, зона для занятия спортом и отдельная парковка для велосипедов.","readyBusinessType":null,"descriptionMinhash":[49472650,8359824,23002496,23029933,15477271,135674231,9695767,32823506,72021997,46609375,11419043,1006418,30739180,2039279,13180383,20027111,89953279,1669712,53380155,69376097,3708820,31947154,9979499,21675051,9460550,49129368,225344,57999886,71039267,20966095,2202004,40976764],"promoInfo":null,"areaParts":null,"geo":{"highways":[],"jk":{"name":"Корица","webSiteUrlUtm":"http:\u002F\u002Fжк-корица.рф\u002F?utm_source=cian&utm_medium=kartochka_cian&utm_campaign=2024474","house":{"id":6585050,"name":"дом 2"},"gaGeo":{"cityId":4885,"moId":0,"oblId":4596},"id":2024474,"displayName":"ЖК «Корица»","fullUrl":"https:\u002F\u002Fnn.cian.ru\u002Fzhiloy-kompleks-korica-nizhniy-novgorod-2024474\u002F","webSiteUrl":"http:\u002F\u002Fжк-корица.рф\u002F","developer":{"id":null,"name":"ННДК"}},"userInput":"Нижний Новгород, улица Александра Хохлова","coordinates":{"lat":56.30200122565071,"lng":44.06814552247455},"districts":[{"geoType":"district","locationId":4885,"name":"Нижегородский","id":254,"type":"raion","title":"р-н Нижегородский","fullName":"р-н Нижегородский","qs":"deal_type=sale&district%5B0%5D=254&engine_version=2&offer_type=flat&room1=1&room2=1&room3=1&room4=1&room5=1&room6=1&room7=1&room9=1","parentId":null}],"buildingAddress":null,"address":[{"isFormingAddress":true,"geoType":"location","name":"Нижегородская","id":4596,"type":"location","title":"Нижегородская область","fullName":"Нижегородская область","locationTypeId":2,"shortName":"Нижегородская область","qs":"deal_type=sale&engine_version=2&offer_type=flat&region=4596&room1=1&room2=1&room3=1&room4=1&room5=1&room6=1&room7=1&room9=1"},{"isFormingAddress":true,"geoType":"location","name":"Нижний Новгород","id":4885,"type":"location","title":"Нижний Новгород","fullName":"Нижний Новгород","locationTypeId":1,"shortName":"Нижний Новгород","qs":"deal_type=sale&engine_version=2&offer_type=flat&region=4885&room1=1&room2=1&room3=1&room4=1&room5=1&room6=1&room7=1&room9=1"},{"isFormingAddress":null,"geoType":"district","name":"Нижегородский","id":254,"type":"raion","title":"р-н Нижегородский","fullName":"р-н Нижегородский","locationTypeId":null,"shortName":"р-н Нижегородский","qs":"deal_type=sale&district%5B0%5D=254&engine_version=2&offer_type=flat&room1=1&room2=1&room3=1&room4=1&room5=1&room6=1&room7=1&room9=1"},{"isFormingAddress":null,"geoType":"underground","name":"Горьковская","id":323,"type":"metro","title":"м. Горьковская","fullName":"м. Горьковская","locationTypeId":null,"shortName":"м. Горьковская","qs":"deal_type=sale&engine_version=2&metro%5B0%5D=323&offer_type=flat&room1=1&room2=1&room3=1&room4=1&room5=1&room6=1&room7=1&room9=1"},{"isFormingAddress":true,"geoType":"street","name":"Александра Хохлова","id":707543,"type":"street","title":"улица Александра Хохлова","fullName":"улица Александра Хохлова","locationTypeId":null,"shortName":"ул. Александра Хохлова","qs":"deal_type=sale&engine_version=2&offer_type=flat&room1=1&room2=1&room3=1&room4=1&room5=1&room6=1&room7=1&room9=1&street%5B0%5D=707543"}],"countryId":138,"undergrounds":[{"cianId":null,"releaseYear":null,"name":"Горьковская","time":7,"lineColor":"CF0000","id":323,"transportType":"transport","lineId":24,"qs":"deal_type=sale&engine_version=2&metro%5B0%5D=323&offer_type=flat&room1=1&room2=1&room3=1&room4=1&room5=1&room6=1&room7=1&room9=1","isDefault":true,"underConstruction":false},{"cianId":null,"releaseYear":null,"name":"Стрелка","time":11,"lineColor":"03238B","id":360,"transportType":"transport","lineId":25,"qs":"deal_type=sale&engine_version=2&metro%5B0%5D=360&offer_type=flat&room1=1&room2=1&room3=1&room4=1&room5=1&room6=1&room7=1&room9=1","isDefault":null,"underConstruction":false},{"cianId":null,"releaseYear":null,"name":"Московская","time":12,"lineColor":"CF0000","id":324,"transportType":"transport","lineId":24,"qs":"deal_type=sale&engine_version=2&metro%5B0%5D=324&offer_type=flat&room1=1&room2=1&room3=1&room4=1&room5=1&room6=1&room7=1&room9=1","isDefault":null,"underConstruction":false}],"railways":[],"sortedGeoIds":[{"type":"underground","id":323},{"type":"underground","id":360},{"type":"underground","id":324},{"type":"district","id":254}]},"added":"сегодня, 12:52","category":"newBuildingFlatSale","moderationInfo":{"showContactWarningMessage":false,"photoStub":null,"warningMessage":null},"isCommercialOwnershipVerified":null,"building":{"buildYear":null,"cargoLiftsCount":null,"floorsCount":19,"type":null,"deadline":{"isComplete":false,"quarter":"second","quarterEnd":"2024-06-30","year":2024},"materialType":"monolith","accessType":null,"passengerLiftsCount":null,"heatingType":null},"newbuilding":{"showJkReliableFlag":false,"isSalesLeader":null,"isFromDeveloper":true,"name":"Корица","house":{"finishDate":{"quarter":2,"year":2024},"isFinished":false,"id":6585050,"name":"дом 2"},"id":2024474,"isFromBuilder":true,"isFromLeadFactory":false,"hasFlatTourBooking":false,"isFromSeller":true},"similar":null,"creationDate":"2021-07-29T16:13:24.917","booking":null,"balconiesCount":null,"isAuction":true,"cianUserId":76620248,"workTimeInfo":{"isAvailable":true,"callFrom":"10:00:00","timezoneText":"Московскому","callTo":"19:00:00"},"isNew":false,"isByCommercialOwner":null,"isByHomeowner":null,"shareAmount":null,"layout":null,"kitchenArea":null,"jkUrl":"https:\u002F\u002Fnn.cian.ru\u002Fzhiloy-kompleks-korica-nizhniy-novgorod-2024474\u002F","isRentByParts":false,"isColorized":false,"isNeedHideExactAddress":false,"businessShoppingCenter":null,"monthlyIncome":null,"garage":null,"demolishedInMoscowProgramm":null,"flatType":"rooms","videos":[],"totalArea":"45.7","fullUrl":"https:\u002F\u002Fnn.cian.ru\u002Fsale\u002Fflat\u002F261414396\u002F","workplaceCount":null,"isExcludedFromAction":false,"loggiasCount":null,"coworking":null,"minArea":null,"offerInDeal":false,"specialty":{"specialties":[],"types":[],"additionalTypes":[]},"basicProfiScore":1,"land":null,"rentByPartsDescription":null,"isPaid":false,"categoriesIds":[1,100,110,113],"userId":76620248,"cianId":261414396,"isTop3":true,"isInHiddenBase":false,"floorNumber":11,"publishedUserId":76620248,"isApartments":false,"villageMortgageAllowed":false,"roomsCount":1,"humanizedTimedelta":"7 часов назад","isImported":true,"rosreestrCheck":null,"officeType":null,"isPremium":false,"offerType":"flat","permittedUseType":null,"photos":[{"isLayout":null,"thumbnailUrl":"https:\u002F\u002Fcdn-p.cian.site\u002Fimages\u002F06\u002F538\u002F211\u002F1128356005-2.jpg","id":1128356005,"miniUrl":"https:\u002F\u002Fcdn-p.cian.site\u002Fimages\u002F06\u002F538\u002F211\u002F1128356005-3.jpg","fullUrl":"https:\u002F\u002Fcdn-p.cian.site\u002Fimages\u002F06\u002F538\u002F211\u002F1128356005-1.jpg","thumbnail2Url":"https:\u002F\u002Fcdn-p.cian.site\u002Fimages\u002F06\u002F538\u002F211\u002F1128356005-4.jpg","isDefault":false,"rotateDegree":null},{"isLayout":null,"thumbnailUrl":"https:\u002F\u002Fcdn-p.cian.site\u002Fimages\u002F06\u002F538\u002F211\u002F1128356077-2.jpg","id":1128356077,"miniUrl":"https:\u002F\u002Fcdn-p.cian.site\u002Fimages\u002F06\u002F538\u002F211\u002F1128356077-3.jpg","fullUrl":"https:\u002F\u002Fcdn-p.cian.site\u002Fimages\u002F06\u002F538\u002F211\u002F1128356077-1.jpg","thumbnail2Url":"https:\u002F\u002Fcdn-p.cian.site\u002Fimages\u002F06\u002F538\u002F211\u002F1128356077-4.jpg","isDefault":false,"rotateDegree":null},{"isLayout":null,"thumbnailUrl":"https:\u002F\u002Fcdn-p.cian.site\u002Fimages\u002F16\u002F538\u002F211\u002F1128356124-2.jpg","id":1128356124,"miniUrl":"https:\u002F\u002Fcdn-p.cian.site\u002Fimages\u002F16\u002F538\u002F211\u002F1128356124-3.jpg","fullUrl":"https:\u002F\u002Fcdn-p.cian.site\u002Fimages\u002F16\u002F538\u002F211\u002F1128356124-1.jpg","thumbnail2Url":"https:\u002F\u002Fcdn-p.cian.site\u002Fimages\u002F16\u002F538\u002F211\u002F1128356124-4.jpg","isDefault":false,"rotateDegree":null},{"isLayout":null,"thumbnailUrl":"https:\u002F\u002Fcdn-p.cian.site\u002Fimages\u002F26\u002F538\u002F211\u002F1128356201-2.jpg","id":1128356201,"miniUrl":"https:\u002F\u002Fcdn-p.cian.site\u002Fimages\u002F26\u002F538\u002F211\u002F1128356201-3.jpg","fullUrl":"https:\u002F\u002Fcdn-p.cian.site\u002Fimages\u002F26\u002F538\u002F211\u002F1128356201-1.jpg","thumbnail2Url":"https:\u002F\u002Fcdn-p.cian.site\u002Fimages\u002F26\u002F538\u002F211\u002F1128356201-4.jpg","isDefault":false,"rotateDegree":null},{"isLayout":null,"thumbnailUrl":"https:\u002F\u002Fcdn-p.cian.site\u002Fimages\u002F26\u002F538\u002F211\u002F1128356278-2.jpg","id":1128356278,"miniUrl":"https:\u002F\u002Fcdn-p.cian.site\u002Fimages\u002F26\u002F538\u002F211\u002F1128356278-3.jpg","fullUrl":"https:\u002F\u002Fcdn-p.cian.site\u002Fimages\u002F26\u002F538\u002F211\u002F1128356278-1.jpg","thumbnail2Url":"https:\u002F\u002Fcdn-p.cian.site\u002Fimages\u002F26\u002F538\u002F211\u002F1128356278-4.jpg","isDefault":false,"rotateDegree":null}],"decoration":null,"newbuildingVasPromotion":null,"coworkingOfferType":null,"isCalltrackingEnabled":true,"isDuplicatedDescription":false,"isFavorite":false,"notes":{"offer":null,"realtor":null},"user":{"accountType":"agency","agencyName":"ННДК","agentAvatarUrl":"https:\u002F\u002Fwww.cian.ru\u002Favatar.axd?i=42699318&t=2&p=2","billingInfo":{"accountType":1,"packages":[{"countryId":138,"depositRequired":false,"geoName":"Нижегородская область","locationId":4596,"packageTypeId":5,"packageTypeName":"Застройщик"}],"removeCompetitor":false,"replenishDisabled":true},"cianProfileStatus":"approved","cianUserId":"76620248","companyName":"ННДК","isAgent":true,"isBuilder":true,"isCallbackUser":true,"isChatsEnabled":true,"isHidden":false,"isPassportVerified":false,"isSelfEmployed":false,"isSubAgent":false,"phoneNumbers":[{"countryCode":"+7","number":"9202913391"}],"userTrustLevel":"notInvolved","userId":76620248,"userType":"developer","isCianPartner":false,"canShowOnline":false,"agentModerationInfo":{"isUserIdentified":false,"isUserIdentifiedByDocuments":false},"personalRating":null,"agentAvailability":{"available":false,"availableFrom":"2021-11-10T10:00:00+03:00","availableTo":"2021-11-10T19:00:00+03:00","message":"Напишите ему или позвоните завтра.","title":"Специалист работает с 10:00 по 19:00.","userId":76620248}},"isPro":true,"gaLabel":"\u002Fsale\u002Fflat\u002Fmo_id=0\u002Fobl_id=4596\u002Fcity_id=4885\u002Fobject_type=2\u002Fga_obj_type=1\u002Fspec=company\u002F261414396\u002Ffrom_developer=1\u002Frepres=0\u002Fowner=0\u002Fpod_snos=0\u002Fnv=0\u002F","adfoxParams":{"puid1":"deal_type_sale","puid2":"offer_flat","puid3":"sale_type_first","puid4":"offer_type_1","puid5":"obl_id_4596","puid6":"3001_7000","puid8":5650000,"puid9":323,"puid10":"no_agent","puid16":"false","puid17":"false","puid18":2024474,"puid19":"not_video","puid36":4885},"chatId":null,"chat":null,"auction":null,"savedSearchLabels":[],"isDealRequestSubstitutionPhone":false,"isNewbuildingTourAvailable":false,"comparisonStatus":{"status":"available","description":"Добавить к сравнению"},"photoFeatureIcons":[],"offerFeatureLabels":[],"factoids":[{"type":"houseFinishDate","title":"Сдача корпуса","text":"2 кв 2024"},{"type":"house","title":"Корпус","text":"дом 2"}],"isCianPartner":false,"newbuildingDynamicCalltracking":{"siteBlockId":null}},{"humanizedTimedelta":"9 часов назад","isPaid":false,"added":"сегодня, 10:38","roomsForSaleCount":null,"areaParts":null,"videos":[],"kp":null,"dealRentVersion":null,"accessType":null,"jkUrl":"https:\u002F\u002Fnn.cian.ru\u002Fzhiloy-kompleks-korica-nizhniy-novgorod-2024474\u002F","decoration":null,"fromDeveloper":true,"offerInDeal":false,"livingArea":null,"isInHiddenBase":false,"offerType":"flat","isByCommercialOwner":null,"isCalltrackingEnabled":true,"shareAmount":null,"userId":76620248,"rosreestrCheck":null,"booking":null,"isColorized":false,"cianUserId":76620248,"allFromOffrep":null,"photos":[{"thumbnailUrl":"https:\u002F\u002Fcdn-p.cian.site\u002Fimages\u002F69\u002F538\u002F211\u002F1128359678-2.jpg","isDefault":false,"isLayout":null,"thumbnail2Url":"https:\u002F\u002Fcdn-p.cian.site\u002Fimages\u002F69\u002F538\u002F211\u002F1128359678-4.jpg","miniUrl":"https:\u002F\u002Fcdn-p.cian.site\u002Fimages\u002F69\u002F538\u002F211\u002F1128359678-3.jpg","rotateDegree":null,"fullUrl":"https:\u002F\u002Fcdn-p.cian.site\u002Fimages\u002F69\u002F538\u002F211\u002F1128359678-1.jpg","id":1128359678},{"thumbnailUrl":"https:\u002F\u002Fcdn-p.cian.site\u002Fimages\u002F79\u002F538\u002F211\u002F1128359720-2.jpg","isDefault":false,"isLayout":null,"thumbnail2Url":"https:\u002F\u002Fcdn-p.cian.site\u002Fimages\u002F79\u002F538\u002F211\u002F1128359720-4.jpg","miniUrl":"https:\u002F\u002Fcdn-p.cian.site\u002Fimages\u002F79\u002F538\u002F211\u002F1128359720-3.jpg","rotateDegree":null,"fullUrl":"https:\u002F\u002Fcdn-p.cian.site\u002Fimages\u002F79\u002F538\u002F211\u002F1128359720-1.jpg","id":1128359720},{"thumbnailUrl":"https:\u002F\u002Fcdn-p.cian.site\u002Fimages\u002F79\u002F538\u002F211\u002F1128359751-2.jpg","isDefault":false,"isLayout":null,"thumbnail2Url":"https:\u002F\u002Fcdn-p.cian.site\u002Fimages\u002F79\u002F538\u002F211\u002F1128359751-4.jpg","miniUrl":"https:\u002F\u002Fcdn-p.cian.site\u002Fimages\u002F79\u002F538\u002F211\u002F1128359751-3.jpg","rotateDegree":null,"fullUrl":"https:\u002F\u002Fcdn-p.cian.site\u002Fimages\u002F79\u002F538\u002F211\u002F1128359751-1.jpg","id":1128359751},{"thumbnailUrl":"https:\u002F\u002Fcdn-p.cian.site\u002Fimages\u002F79\u002F538\u002F211\u002F1128359785-2.jpg","isDefault":false,"isLayout":null,"thumbnail2Url":"https:\u002F\u002Fcdn-p.cian.site\u002Fimages\u002F79\u002F538\u002F211\u002F1128359785-4.jpg","miniUrl":"https:\u002F\u002Fcdn-p.cian.site\u002Fimages\u002F79\u002F538\u002F211\u002F1128359785-3.jpg","rotateDegree":null,"fullUrl":"https:\u002F\u002Fcdn-p.cian.site\u002Fimages\u002F79\u002F538\u002F211\u002F1128359785-1.jpg","id":1128359785},{"thumbnailUrl":"https:\u002F\u002Fcdn-p.cian.site\u002Fimages\u002F89\u002F538\u002F211\u002F1128359818-2.jpg","isDefault":false,"isLayout":null,"thumbnail2Url":"https:\u002F\u002Fcdn-p.cian.site\u002Fimages\u002F89\u002F538\u002F211\u002F1128359818-4.jpg","miniUrl":"https:\u002F\u002Fcdn-p.cian.site\u002Fimages\u002F89\u002F538\u002F211\u002F1128359818-3.jpg","rotateDegree":null,"fullUrl":"https:\u002F\u002Fcdn-p.cian.site\u002Fimages\u002F89\u002F538\u002F211\u002F1128359818-1.jpg","id":1128359818}],"businessShoppingCenter":null,"demolishedInMoscowProgramm":null,"balconiesCount":null,"isImported":true,"fullUrl":"https:\u002F\u002Fnn.cian.ru\u002Fsale\u002Fflat\u002F261414874\u002F","isRentByParts":false,"minArea":null,"isNew":false,"dealType":"sale","isByHomeowner":null,"permittedUseType":null,"flatType":"rooms","id":261414874,"basicProfiScore":1,"specialty":{"types":[],"additionalTypes":[],"specialties":[]},"categoriesIds":[1,100,110,113],"newbuildingVasPromotion":null,"publishedUserId":76620248,"totalArea":"84.65","roomsCount":3,"isExcludedFromAction":false,"workTimeInfo":{"callFrom":"10:00:00","isAvailable":false,"timezoneText":"Московскому","callTo":"19:00:00"},"land":null,"isAuction":true,"description":"Продаётся 3-комнатная квартира в строящемся доме (дом 2), срок сдачи: II-кв. 2024, общей площадью 84.65 кв.м., на 3 этаже. Проект комфорт-класса от компании \"ННДК\", расположен в десяти минутах от центра города. ЖК \"Корица\" уникален тем, что каждая квартира оснащена системой \"умный дом\", комплектацию которого вы можете выбрать сами. \nТакже мы предлагаем вам на выбор четыре вида улучшенной отделки, варианты которой вы можете посмотреть в конфигураторе на нашем сайте. На первом этаже расположен тренажёрный зал, который жители могут посещать бесплатно и в любое удобное время. \nЗакрытая дворовая территория, с индивидуальным ландшафтным дизайном станет излюбленным местом отдыха для каждого. Детская площадка, зона для занятия спортом и отдельная парковка для велосипедов.","isCommercialOwnershipVerified":null,"workplaceCount":null,"isNeedHideExactAddress":false,"garage":null,"readyBusinessType":null,"isPremium":false,"isTop3":true,"descriptionWordsHighlighted":[],"phones":[{"number":"8312344034","countryCode":"7"}],"rentByPartsDescription":null,"kitchenArea":null,"isApartments":false,"villageMortgageAllowed":false,"isRecidivist":false,"newbuilding":{"hasFlatTourBooking":false,"isSalesLeader":null,"isFromBuilder":true,"isFromLeadFactory":false,"name":"Корица","showJkReliableFlag":false,"house":{"finishDate":{"year":2024,"quarter":2},"isFinished":false,"id":6585050,"name":"дом 2"},"isFromSeller":true,"id":2024474,"isFromDeveloper":true},"similar":null,"showWarningMessage":false,"building":{"heatingType":null,"buildYear":null,"passengerLiftsCount":null,"floorsCount":19,"materialType":"monolith","accessType":null,"deadline":{"quarterEnd":"2024-06-30","year":2024,"quarter":"second","isComplete":false},"cargoLiftsCount":null,"type":null},"loggiasCount":null,"monthlyIncome":null,"title":null,"layout":null,"floorNumber":3,"descriptionMinhash":[49472650,8359824,23002496,23029933,15477271,135674231,9695767,32823506,72021997,46609375,11419043,1006418,30739180,2039279,13180383,20027111,89953279,1669712,53380155,69376097,3708820,31947154,9979499,21675051,9460550,49129368,225344,57999886,71039267,20966095,2202004,40976764],"promoInfo":null,"bargainTerms":{"priceType":"all","clientFee":null,"deposit":null,"mortgageAllowed":null,"saleType":"fz214","leaseType":null,"vatType":null,"utilitiesTerms":null,"agentBonus":null,"price":9200000,"vatPrice":null,"paymentPeriod":null,"priceForWorkplace":null,"agentFee":null,"priceRur":9200000,"currency":"rur","bargainAllowed":null,"leaseTermType":null},"officeType":null,"cianId":261414874,"moderationInfo":{"photoStub":null,"showContactWarningMessage":false,"warningMessage":null},"status":"published","geo":{"coordinates":{"lng":44.06814552247455,"lat":56.30200122565071},"undergrounds":[{"lineId":24,"lineColor":"CF0000","cianId":null,"time":7,"qs":"deal_type=sale&engine_version=2&metro%5B0%5D=323&offer_type=flat&room1=1&room2=1&room3=1&room4=1&room5=1&room6=1&room7=1&room9=1","isDefault":true,"releaseYear":null,"name":"Горьковская","underConstruction":false,"id":323,"transportType":"transport"},{"lineId":25,"lineColor":"03238B","cianId":null,"time":11,"qs":"deal_type=sale&engine_version=2&metro%5B0%5D=360&offer_type=flat&room1=1&room2=1&room3=1&room4=1&room5=1&room6=1&room7=1&room9=1","isDefault":null,"releaseYear":null,"name":"Стрелка","underConstruction":false,"id":360,"transportType":"transport"},{"lineId":24,"lineColor":"CF0000","cianId":null,"time":12,"qs":"deal_type=sale&engine_version=2&metro%5B0%5D=324&offer_type=flat&room1=1&room2=1&room3=1&room4=1&room5=1&room6=1&room7=1&room9=1","isDefault":null,"releaseYear":null,"name":"Московская","underConstruction":false,"id":324,"transportType":"transport"}],"userInput":"Нижний Новгород, улица Александра Хохлова","jk":{"webSiteUrlUtm":"http:\u002F\u002Fжк-корица.рф\u002F?utm_source=cian&utm_medium=kartochka_cian&utm_campaign=2024474","gaGeo":{"moId":0,"oblId":4596,"cityId":4885},"webSiteUrl":"http:\u002F\u002Fжк-корица.рф\u002F","displayName":"ЖК «Корица»","name":"Корица","developer":{"id":null,"name":"ННДК"},"house":{"id":6585050,"name":"дом 2"},"fullUrl":"https:\u002F\u002Fnn.cian.ru\u002Fzhiloy-kompleks-korica-nizhniy-novgorod-2024474\u002F","id":2024474},"countryId":138,"districts":[{"title":"р-н Нижегородский","parentId":null,"qs":"deal_type=sale&district%5B0%5D=254&engine_version=2&offer_type=flat&room1=1&room2=1&room3=1&room4=1&room5=1&room6=1&room7=1&room9=1","locationId":4885,"name":"Нижегородский","type":"raion","geoType":"district","fullName":"р-н Нижегородский","id":254}],"highways":[],"buildingAddress":null,"railways":[],"address":[{"title":"Нижегородская область","qs":"deal_type=sale&engine_version=2&offer_type=flat&region=4596&room1=1&room2=1&room3=1&room4=1&room5=1&room6=1&room7=1&room9=1","locationTypeId":2,"isFormingAddress":true,"name":"Нижегородская","shortName":"Нижегородская область","type":"location","geoType":"location","fullName":"Нижегородская область","id":4596},{"title":"Нижний Новгород","qs":"deal_type=sale&engine_version=2&offer_type=flat&region=4885&room1=1&room2=1&room3=1&room4=1&room5=1&room6=1&room7=1&room9=1","locationTypeId":1,"isFormingAddress":true,"name":"Нижний Новгород","shortName":"Нижний Новгород","type":"location","geoType":"location","fullName":"Нижний Новгород","id":4885},{"title":"р-н Нижегородский","qs":"deal_type=sale&district%5B0%5D=254&engine_version=2&offer_type=flat&room1=1&room2=1&room3=1&room4=1&room5=1&room6=1&room7=1&room9=1","locationTypeId":null,"isFormingAddress":null,"name":"Нижегородский","shortName":"р-н Нижегородский","type":"raion","geoType":"district","fullName":"р-н Нижегородский","id":254},{"title":"м. Горьковская","qs":"deal_type=sale&engine_version=2&metro%5B0%5D=323&offer_type=flat&room1=1&room2=1&room3=1&room4=1&room5=1&room6=1&room7=1&room9=1","locationTypeId":null,"isFormingAddress":null,"name":"Горьковская","shortName":"м. Горьковская","type":"metro","geoType":"underground","fullName":"м. Горьковская","id":323},{"title":"улица Александра Хохлова","qs":"deal_type=sale&engine_version=2&offer_type=flat&room1=1&room2=1&room3=1&room4=1&room5=1&room6=1&room7=1&room9=1&street%5B0%5D=707543","locationTypeId":null,"isFormingAddress":true,"name":"Александра Хохлова","shortName":"ул. Александра Хохлова","type":"street","geoType":"street","fullName":"улица Александра Хохлова","id":707543}],"sortedGeoIds":[{"type":"underground","id":323},{"type":"underground","id":360},{"type":"underground","id":324},{"type":"district","id":254}]},"bedroomsCount":null,"creationDate":"2021-07-29T16:16:34.367","roomArea":null,"coworkingOfferType":null,"coworking":null,"addedTimestamp":1636443518,"category":"newBuildingFlatSale","isDuplicatedDescription":false,"isFavorite":false,"notes":{"offer":null,"realtor":null},"user":{"accountType":"agency","agencyName":"ННДК","agentAvatarUrl":"https:\u002F\u002Fwww.cian.ru\u002Favatar.axd?i=42699318&t=2&p=2","billingInfo":{"accountType":1,"packages":[{"countryId":138,"depositRequired":false,"geoName":"Нижегородская область","locationId":4596,"packageTypeId":5,"packageTypeName":"Застройщик"}],"removeCompetitor":false,"replenishDisabled":true},